{
"type": "FeatureCollection",
"crs": { "type": "name", "properties": { "name": "urn:ogc:def:crs:OGC:1.3:CRS84" } },
"features": [
{ "type": "Feature", "properties": { "PARKID": "ALB01", "NAME": "Riverside Park", "CITY": "East Albany", "STATE": "NY", "START": "1880-09-11", "END": "1882-05-30", "LEAGUE": "NL", "Latitude": 42.642295, "Longitude": -73.745198, "Altitude": 14, "TEAM": "Troy Trojans", "CAPACITY": "3000", "Notes": "https://www.statscrew.com/venues/v-38" }, "geometry": { "type": "Point", "coordinates": [ -73.745198, 42.642295 ] } },
{ "type": "Feature", "properties": { "PARKID": "ANA01", "NAME": "Angel Stadium of Anaheim", "CITY": "Anaheim", "STATE": "CA", "START": "1966-04-19", "END": null, "LEAGUE": "AL", "Latitude": 33.80029, "Longitude": -117.882685, "Altitude": 154, "TEAM": "Los Angeles Angels", "CAPACITY": "45050", "Notes": null }, "geometry": { "type": "Point", "coordinates": [ -117.882685, 33.80029 ] } },
{ "type": "Feature", "properties": { "PARKID": "ARL01", "NAME": "Arlington Stadium", "CITY": "Arlington", "STATE": "TX", "START": "1972-04-21", "END": "1993-10-03", "LEAGUE": "AL", "Latitude": 32.755974, "Longitude": -97.084778, "Altitude": 552, "TEAM": "Texas Rangers", "CAPACITY": "43521", "Notes": "https://www.mlb.com/rangers/history/ballparks" }, "geometry": { "type": "Point", "coordinates": [ -97.084778, 32.755974 ] } },
{ "type": "Feature", "properties": { "PARKID": "ARL02", "NAME": "Globe Life Park", "CITY": "Arlington", "STATE": "TX", "START": "1994-04-11", "END": "2019-09-29", "LEAGUE": "AL", "Latitude": 32.751164, "Longitude": -97.082546, "Altitude": 549, "TEAM": "Texas Rangers", "CAPACITY": "48114", "Notes": "https://www.mlb.com/rangers/history/ballparks" }, "geometry": { "type": "Point", "coordinates": [ -97.082546, 32.751164 ] } },
{ "type": "Feature", "properties": { "PARKID": "ARL03", "NAME": "Globe Life Field", "CITY": "Arlington", "STATE": "TX", "START": "2020-07-24", "END": null, "LEAGUE": "AL", "Latitude": 32.747269, "Longitude": -97.083198, "Altitude": 551, "TEAM": "Texas Rangers", "CAPACITY": "40300", "Notes": "https://www.mlb.com/rangers/ballpark/facts-figures" }, "geometry": { "type": "Point", "coordinates": [ -97.083198, 32.747269 ] } },
{ "type": "Feature", "properties": { "PARKID": "ATL01", "NAME": "Atlanta-Fulton County Stadium", "CITY": "Atlanta", "STATE": "GA", "START": "1966-04-12", "END": "1996-09-23", "LEAGUE": "NL", "Latitude": 33.739457, "Longitude": -84.389486, "Altitude": 979, "TEAM": "Atlanta Braves", "CAPACITY": "52769", "Notes": "https://en.wikipedia.org/wiki/Turner_Field" }, "geometry": { "type": "Point", "coordinates": [ -84.389486, 33.739457 ] } },
{ "type": "Feature", "properties": { "PARKID": "ATL02", "NAME": "Turner Field", "CITY": "Atlanta", "STATE": "GA", "START": "1997-04-04", "END": "2016-10-02", "LEAGUE": "NL", "Latitude": 33.735487, "Longitude": -84.389464, "Altitude": 939, "TEAM": "Atlanta Braves", "CAPACITY": "49586", "Notes": "https://en.wikipedia.org/wiki/Turner_Field" }, "geometry": { "type": "Point", "coordinates": [ -84.389464, 33.735487 ] } },
{ "type": "Feature", "properties": { "PARKID": "ATL03", "NAME": "SunTrust Park", "CITY": "Atlanta", "STATE": "GA", "START": "2017-04-14", "END": null, "LEAGUE": "NL", "Latitude": 33.89127, "Longitude": -84.4681, "Altitude": 981, "TEAM": "Atlanta Braves", "CAPACITY": "41084", "Notes": null }, "geometry": { "type": "Point", "coordinates": [ -84.4681, 33.89127 ] } },
{ "type": "Feature", "properties": { "PARKID": "BAL09", "NAME": "Oriole Park IV", "CITY": "Baltimore", "STATE": "MD", "START": "1901-04-26", "END": "1902-09-29", "LEAGUE": "AL", "Latitude": 39.323868, "Longitude": -76.609953, "Altitude": 202, "TEAM": "Baltimore Orioles", "CAPACITY": "3000", "Notes": "https://sabr.org/bioproj/park/american-league-park-baltimore/" }, "geometry": { "type": "Point", "coordinates": [ -76.609953, 39.323868 ] } },
{ "type": "Feature", "properties": { "PARKID": "BAL11", "NAME": "Memorial Stadium", "CITY": "Baltimore", "STATE": "MD", "START": "1954-04-15", "END": "1991-10-06", "LEAGUE": "AL", "Latitude": 39.330001, "Longitude": -76.601488, "Altitude": 231, "TEAM": "Baltimore Orioles", "CAPACITY": "54000", "Notes": "https://www.mlb.com/orioles/history/ballparks" }, "geometry": { "type": "Point", "coordinates": [ -76.601488, 39.330001 ] } },
{ "type": "Feature", "properties": { "PARKID": "BAL12", "NAME": "Oriole Park at Camden Yards", "CITY": "Baltimore", "STATE": "MD", "START": "1992-04-06", "END": null, "LEAGUE": "AL", "Latitude": 39.283944, "Longitude": -76.621572, "Altitude": 35, "TEAM": "Baltimore Orioles", "CAPACITY": "45363", "Notes": null }, "geometry": { "type": "Point", "coordinates": [ -76.621572, 39.283944 ] } },
{ "type": "Feature", "properties": { "PARKID": "BOS03", "NAME": "South End Grounds II", "CITY": "Boston", "STATE": "MA", "START": "1888-05-25", "END": "1894-05-14", "LEAGUE": "NL", "Latitude": 42.336836, "Longitude": -71.087769, "Altitude": 11, "TEAM": "Boston Beaneaters", "CAPACITY": "6800", "Notes": "https://www.ballparksofbaseball.com/ballparks/south-end-grounds/ ; https://en.wikipedia.org/wiki/Atlanta_Braves" }, "geometry": { "type": "Point", "coordinates": [ -71.087769, 42.336836 ] } },
{ "type": "Feature", "properties": { "PARKID": "BOS05", "NAME": "South End Grounds III", "CITY": "Boston", "STATE": "MA", "START": "1894-07-20", "END": "1914-08-11", "LEAGUE": "NL", "Latitude": 42.336859, "Longitude": -71.087692, "Altitude": 11, "TEAM": "Boston Braves", "CAPACITY": "11000", "Notes": "https://www.baseball-reference.com/bullpen/South_End_Grounds#:~:text=After%20the%20fire%2C%20the%20Beaneaters,Braves%20Field%20the%20following%20season." }, "geometry": { "type": "Point", "coordinates": [ -71.087692, 42.336859 ] } },
{ "type": "Feature", "properties": { "PARKID": "BOS06", "NAME": "Huntington Avenue Baseball Grounds", "CITY": "Boston", "STATE": "MA", "START": "1901-05-08", "END": "1911-10-07", "LEAGUE": "AL", "Latitude": 42.339199, "Longitude": -71.08913, "Altitude": 8, "TEAM": "Boston Americans", "CAPACITY": "11500", "Notes": "https://en.wikipedia.org/wiki/Huntington_Avenue_Grounds" }, "geometry": { "type": "Point", "coordinates": [ -71.08913, 42.339199 ] } },
{ "type": "Feature", "properties": { "PARKID": "BOS07", "NAME": "Fenway Park", "CITY": "Boston", "STATE": "MA", "START": "1912-04-20", "END": null, "LEAGUE": "AL", "Latitude": 42.346561, "Longitude": -71.097337, "Altitude": 16, "TEAM": "Boston Red Sox", "CAPACITY": "37493", "Notes": null }, "geometry": { "type": "Point", "coordinates": [ -71.097337, 42.346561 ] } },
{ "type": "Feature", "properties": { "PARKID": "BUF01", "NAME": "Riverside Grounds", "CITY": "Buffalo", "STATE": "NY", "START": "1879-05-01", "END": "1883-09-08", "LEAGUE": "NL", "Latitude": 42.906379, "Longitude": -78.892599, "Altitude": 631, "TEAM": "Buffalo Bisons", "CAPACITY": "-", "Notes": "https://en.wikipedia.org/wiki/Olympic_Park_(Buffalo)" }, "geometry": { "type": "Point", "coordinates": [ -78.892599, 42.906379 ] } },
{ "type": "Feature", "properties": { "PARKID": "BUF02", "NAME": "Olympic Park I", "CITY": "Buffalo", "STATE": "NY", "START": "1884-05-21", "END": "1885-10-07", "LEAGUE": "NL", "Latitude": 42.905634, "Longitude": -78.881282, "Altitude": 632, "TEAM": "Buffalo Bisons", "CAPACITY": "-", "Notes": "https://en.wikipedia.org/wiki/Olympic_Park_(Buffalo)" }, "geometry": { "type": "Point", "coordinates": [ -78.881282, 42.905634 ] } },
{ "type": "Feature", "properties": { "PARKID": "CAN02", "NAME": "Pastime Park", "CITY": "Canton", "STATE": "OH", "START": "1890-09-18", "END": "1890-09-18", "LEAGUE": "NL", "Latitude": 40.81132, "Longitude": -81.4234, "Altitude": 1058, "TEAM": "Pittsburgh Burghers", "CAPACITY": "-", "Notes": "http://www.projectballpark.org/history/nl/alt/pasttime.html" }, "geometry": { "type": "Point", "coordinates": [ -81.4234, 40.81132 ] } },
{ "type": "Feature", "properties": { "PARKID": "CHI03", "NAME": "White Stocking Park", "CITY": "Chicago", "STATE": "IL", "START": "1878-05-14", "END": "1884-10-11", "LEAGUE": "NL", "Latitude": 41.883641, "Longitude": -87.623245, "Altitude": 585, "TEAM": "Chicago White Stockings ", "CAPACITY": "7000", "Notes": "https://www.seamheads.com/ballparks/ballpark.php?parkID=CHI01" }, "geometry": { "type": "Point", "coordinates": [ -87.623245, 41.883641 ] } },
{ "type": "Feature", "properties": { "PARKID": "CHI06", "NAME": "West Side Park", "CITY": "Chicago", "STATE": "IL", "START": "1885-06-06", "END": "1891-10-02", "LEAGUE": "NL", "Latitude": 41.874902, "Longitude": -87.660903, "Altitude": 588, "TEAM": "Chicago Colts", "CAPACITY": "10000", "Notes": "https://en.wikipedia.org/wiki/Chicago_Cubs" }, "geometry": { "type": "Point", "coordinates": [ -87.660903, 41.874902 ] } },
{ "type": "Feature", "properties": { "PARKID": "CHI08", "NAME": "West Side Grounds", "CITY": "Chicago", "STATE": "IL", "START": "1893-05-14", "END": "1915-10-03", "LEAGUE": "NL", "Latitude": 41.870218, "Longitude": -87.67251, "Altitude": 593, "TEAM": "Chicago Cubs", "CAPACITY": "16000", "Notes": "https://en.wikipedia.org/wiki/West_Side_Park#The_first_West_Side_Park_(1885%E2%80%931891)" }, "geometry": { "type": "Point", "coordinates": [ -87.67251, 41.870218 ] } },
{ "type": "Feature", "properties": { "PARKID": "CHI09", "NAME": "South Side Park III", "CITY": "Chicago", "STATE": "IL", "START": "1901-04-24", "END": "1910-06-27", "LEAGUE": "AL", "Latitude": 41.824857, "Longitude": -87.632664, "Altitude": 594, "TEAM": "Chicago White Sox", "CAPACITY": "15000", "Notes": "https://en.wikipedia.org/wiki/South_Side_Park" }, "geometry": { "type": "Point", "coordinates": [ -87.632664, 41.824857 ] } },
{ "type": "Feature", "properties": { "PARKID": "CHI10", "NAME": "Comiskey Park I", "CITY": "Chicago", "STATE": "IL", "START": "1910-07-01", "END": "1990-09-30", "LEAGUE": "AL", "Latitude": 41.83201, "Longitude": -87.634025, "Altitude": 594, "TEAM": "Chicago White Sox", "CAPACITY": "43951", "Notes": "https://en.wikipedia.org/wiki/Comiskey_Park" }, "geometry": { "type": "Point", "coordinates": [ -87.634025, 41.83201 ] } },
{ "type": "Feature", "properties": { "PARKID": "CHI11", "NAME": "Wrigley Field", "CITY": "Chicago", "STATE": "IL", "START": "1914-04-23", "END": null, "LEAGUE": "NL", "Latitude": 41.948314, "Longitude": -87.655397, "Altitude": 599, "TEAM": "Chicago Cubs", "CAPACITY": "41160", "Notes": null }, "geometry": { "type": "Point", "coordinates": [ -87.655397, 41.948314 ] } },
{ "type": "Feature", "properties": { "PARKID": "CHI12", "NAME": "Guaranteed Rate Park", "CITY": "Chicago", "STATE": "IL", "START": "1991-04-18", "END": null, "LEAGUE": "AL", "Latitude": 41.829892, "Longitude": -87.633703, "Altitude": 594, "TEAM": "Chicago White Sox", "CAPACITY": "40615", "Notes": null }, "geometry": { "type": "Point", "coordinates": [ -87.633703, 41.829892 ] } },
{ "type": "Feature", "properties": { "PARKID": "CIN02", "NAME": "Avenue Grounds", "CITY": "Cincinnati", "STATE": "OH", "START": "1876-04-25", "END": "1879-08-27", "LEAGUE": "NL", "Latitude": 39.142878, "Longitude": -84.54647, "Altitude": 480, "TEAM": "Red Stockings", "CAPACITY": "7000", "Notes": "https://www.retroseasons.com/stadiums/avenue-grounds/" }, "geometry": { "type": "Point", "coordinates": [ -84.54647, 39.142878 ] } },
{ "type": "Feature", "properties": { "PARKID": "CIN05", "NAME": "League Park II", "CITY": "Cincinnati", "STATE": "OH", "START": "1894-04-20", "END": "1901-10-06", "LEAGUE": "NL", "Latitude": 39.116804, "Longitude": -84.53587, "Altitude": 489, "TEAM": "Cincinatti Reds", "CAPACITY": "3000", "Notes": "https://en.wikipedia.org/wiki/League_Park_(Cincinnati)" }, "geometry": { "type": "Point", "coordinates": [ -84.53587, 39.116804 ] } },
{ "type": "Feature", "properties": { "PARKID": "CIN06", "NAME": "Palace of the Fans", "CITY": "Cincinnati", "STATE": "OH", "START": "1902-04-17", "END": "1911-10-12", "LEAGUE": "NL", "Latitude": 39.116804, "Longitude": -84.53587, "Altitude": 489, "TEAM": "Cincinatti Reds", "CAPACITY": "6000", "Notes": "https://en.wikipedia.org/wiki/Palace_of_the_Fans" }, "geometry": { "type": "Point", "coordinates": [ -84.53587, 39.116804 ] } },
{ "type": "Feature", "properties": { "PARKID": "CIN07", "NAME": "Crosley Field", "CITY": "Cincinnati", "STATE": "OH", "START": "1912-04-11", "END": "1970-06-24", "LEAGUE": "NL", "Latitude": 39.116854, "Longitude": -84.535505, "Altitude": 488, "TEAM": "Cincinatti Reds", "CAPACITY": "29488", "Notes": "https://en.wikipedia.org/wiki/Crosley_Field" }, "geometry": { "type": "Point", "coordinates": [ -84.535505, 39.116854 ] } },
{ "type": "Feature", "properties": { "PARKID": "CIN08", "NAME": "Riverfront Stadium", "CITY": "Cincinnati", "STATE": "OH", "START": "1970-06-30", "END": "2002-09-22", "LEAGUE": "NL", "Latitude": 39.096548, "Longitude": -84.509756, "Altitude": 489, "TEAM": "Cincinatti Reds", "CAPACITY": "52952", "Notes": "https://en.wikipedia.org/wiki/Riverfront_Stadium" }, "geometry": { "type": "Point", "coordinates": [ -84.509756, 39.096548 ] } },
{ "type": "Feature", "properties": { "PARKID": "CIN09", "NAME": "Great American Ballpark", "CITY": "Cincinnati", "STATE": "OH", "START": "2003-03-31", "END": null, "LEAGUE": "NL", "Latitude": 39.097213, "Longitude": -84.506483, "Altitude": 489, "TEAM": "Cincinatti Reds", "CAPACITY": "42319", "Notes": null }, "geometry": { "type": "Point", "coordinates": [ -84.506483, 39.097213 ] } },
{ "type": "Feature", "properties": { "PARKID": "CLE02", "NAME": "National League Park I", "CITY": "Cleveland", "STATE": "OH", "START": "1879-05-01", "END": "1884-10-11", "LEAGUE": "NL", "Latitude": 41.500804, "Longitude": -81.654278, "Altitude": 667, "TEAM": "Cleveland Blues", "CAPACITY": "-", "Notes": "https://en.wikipedia.org/wiki/National_League_Park" }, "geometry": { "type": "Point", "coordinates": [ -81.654278, 41.500804 ] } },
{ "type": "Feature", "properties": { "PARKID": "CLE06", "NAME": "League Park IV", "CITY": "Cleveland", "STATE": "OH", "START": "1910-04-21", "END": "1946-09-21", "LEAGUE": "AL", "Latitude": 41.511852, "Longitude": -81.643766, "Altitude": 644, "TEAM": "Cleveland Indians", "CAPACITY": "22500", "Notes": "https://en.wikipedia.org/wiki/League_Park" }, "geometry": { "type": "Point", "coordinates": [ -81.643766, 41.511852 ] } },
{ "type": "Feature", "properties": { "PARKID": "CLE07", "NAME": "Cleveland Stadium", "CITY": "Cleveland", "STATE": "OH", "START": "1932-07-31", "END": "1993-10-03", "LEAGUE": "AL", "Latitude": 41.506091, "Longitude": -81.699404, "Altitude": 593, "TEAM": "Cleveland Indians", "CAPACITY": "74438", "Notes": "https://en.wikipedia.org/wiki/Cleveland_Stadium" }, "geometry": { "type": "Point", "coordinates": [ -81.699404, 41.506091 ] } },
{ "type": "Feature", "properties": { "PARKID": "CLE08", "NAME": "Progressive Field", "CITY": "Cleveland", "STATE": "OH", "START": "1994-04-04", "END": null, "LEAGUE": "AL", "Latitude": 41.496005, "Longitude": -81.685326, "Altitude": 673, "TEAM": "Cleveland Guardians", "CAPACITY": "43441", "Notes": null }, "geometry": { "type": "Point", "coordinates": [ -81.685326, 41.496005 ] } },
{ "type": "Feature", "properties": { "PARKID": "CLL01", "NAME": "Euclid Beach Park", "CITY": "Collinwood", "STATE": "OH", "START": "1898-06-12", "END": "1898-06-19", "LEAGUE": "NL", "Latitude": 41.577927, "Longitude": -81.565971, "Altitude": 604, "TEAM": "Cleveland Spiders", "CAPACITY": "-", "Notes": "http://www.projectballpark.org/history/nl/alt/euclid.html" }, "geometry": { "type": "Point", "coordinates": [ -81.565971, 41.577927 ] } },
{ "type": "Feature", "properties": { "PARKID": "COL03", "NAME": "Neil Park I", "CITY": "Columbus", "STATE": "OH", "START": "1902-08-03", "END": "1903-05-17", "LEAGUE": "AL", "Latitude": 39.972455, "Longitude": -82.990297, "Altitude": 783, "TEAM": "-", "CAPACITY": "-", "Notes": "Chat Gpt" }, "geometry": { "type": "Point", "coordinates": [ -82.990297, 39.972455 ] } },
{ "type": "Feature", "properties": { "PARKID": "COL04", "NAME": "Neil Park II", "CITY": "Columbus", "STATE": "OH", "START": "1905-07-23", "END": "1905-07-24", "LEAGUE": "AL", "Latitude": 39.972455, "Longitude": -82.990297, "Altitude": 783, "TEAM": "-", "CAPACITY": "-", "Notes": "Chat Gpt" }, "geometry": { "type": "Point", "coordinates": [ -82.990297, 39.972455 ] } },
{ "type": "Feature", "properties": { "PARKID": "DAY01", "NAME": "Fairview Park", "CITY": "Dayton", "STATE": "OH", "START": "1902-06-08", "END": "1902-06-08", "LEAGUE": "AL", "Latitude": 39.786302, "Longitude": -84.213033, "Altitude": 824, "TEAM": "-", "CAPACITY": "-", "Notes": "Chat Gpt" }, "geometry": { "type": "Point", "coordinates": [ -84.213033, 39.786302 ] } },
{ "type": "Feature", "properties": { "PARKID": "DEN01", "NAME": "Mile High Stadium", "CITY": "Denver", "STATE": "CO", "START": "1993-04-09", "END": "1994-08-11", "LEAGUE": "NL", "Latitude": 39.746293, "Longitude": -105.021939, "Altitude": 5211, "TEAM": "Colorado Rockies", "CAPACITY": null, "Notes": null }, "geometry": { "type": "Point", "coordinates": [ -105.021939, 39.746293 ] } },
{ "type": "Feature", "properties": { "PARKID": "DEN02", "NAME": "Coors Field", "CITY": "Denver", "STATE": "CO", "START": "1995-04-26", "END": null, "LEAGUE": "NL", "Latitude": 39.756175, "Longitude": -104.99413, "Altitude": 5197, "TEAM": "Colorado Rockies", "CAPACITY": null, "Notes": null }, "geometry": { "type": "Point", "coordinates": [ -104.99413, 39.756175 ] } },
{ "type": "Feature", "properties": { "PARKID": "DET01", "NAME": "Recreation Park", "CITY": "Detroit", "STATE": "MI", "START": "1881-05-02", "END": "1890-09-23", "LEAGUE": "NL", "Latitude": 42.353487, "Longitude": -83.0564, "Altitude": 625, "TEAM": null, "CAPACITY": null, "Notes": null }, "geometry": { "type": "Point", "coordinates": [ -83.0564, 42.353487 ] } },
{ "type": "Feature", "properties": { "PARKID": "DET02", "NAME": "Bennett Park", "CITY": "Detroit", "STATE": "MI", "START": "1901-04-25", "END": "1911-09-10", "LEAGUE": "AL", "Latitude": 42.332541, "Longitude": -83.068732, "Altitude": 601, "TEAM": null, "CAPACITY": null, "Notes": null }, "geometry": { "type": "Point", "coordinates": [ -83.068732, 42.332541 ] } },
{ "type": "Feature", "properties": { "PARKID": "DET03", "NAME": "Burns Park", "CITY": "Detroit", "STATE": "MI", "START": "1901-04-28", "END": "1902-09-07", "LEAGUE": "AL", "Latitude": 42.318309, "Longitude": -83.127755, "Altitude": 590, "TEAM": null, "CAPACITY": null, "Notes": null }, "geometry": { "type": "Point", "coordinates": [ -83.127755, 42.318309 ] } },
{ "type": "Feature", "properties": { "PARKID": "DET04", "NAME": "Tiger Stadium", "CITY": "Detroit", "STATE": "MI", "START": "1912-04-20", "END": "1999-09-27", "LEAGUE": "AL", "Latitude": 42.332541, "Longitude": -83.068732, "Altitude": 601, "TEAM": null, "CAPACITY": null, "Notes": null }, "geometry": { "type": "Point", "coordinates": [ -83.068732, 42.332541 ] } },
{ "type": "Feature", "properties": { "PARKID": "DET05", "NAME": "Comerica Park", "CITY": "Detroit", "STATE": "MI", "START": "2000-04-11", "END": null, "LEAGUE": "AL", "Latitude": 42.339063, "Longitude": -83.048627, "Altitude": 602, "TEAM": null, "CAPACITY": null, "Notes": null }, "geometry": { "type": "Point", "coordinates": [ -83.048627, 42.339063 ] } },
{ "type": "Feature", "properties": { "PARKID": "ELM01", "NAME": "Maple Avenue Driving Park", "CITY": "Elmira", "STATE": "NY", "START": "1885-10-10", "END": "1885-10-10", "LEAGUE": "NL", "Latitude": 42.081115, "Longitude": -76.781308, "Altitude": 852, "TEAM": null, "CAPACITY": null, "Notes": null }, "geometry": { "type": "Point", "coordinates": [ -76.781308, 42.081115 ] } },
{ "type": "Feature", "properties": { "PARKID": "FOR03", "NAME": "Jailhouse Flats", "CITY": "Fort Wayne", "STATE": "IN", "START": "1902-06-22", "END": "1902-08-31", "LEAGUE": "AL", "Latitude": 41.084198, "Longitude": -85.139431, "Altitude": 756, "TEAM": null, "CAPACITY": null, "Notes": null }, "geometry": { "type": "Point", "coordinates": [ -85.139431, 41.084198 ] } },
{ "type": "Feature", "properties": { "PARKID": "FTB01", "NAME": "Fort Bragg Field", "CITY": "Fort Bragg", "STATE": "NC", "START": "2016-04-03", "END": "2016-07-03", "LEAGUE": "NL", "Latitude": 35.163068, "Longitude": -79.001193, "Altitude": 324, "TEAM": null, "CAPACITY": null, "Notes": null }, "geometry": { "type": "Point", "coordinates": [ -79.001193, 35.163068 ] } },
{ "type": "Feature", "properties": { "PARKID": "GRA01", "NAME": "Ramona Park", "CITY": "Grand Rapids", "STATE": "MI", "START": "1903-05-24", "END": "1903-05-24", "LEAGUE": "AL", "Latitude": 42.951512, "Longitude": -85.613776, "Altitude": 751, "TEAM": null, "CAPACITY": null, "Notes": null }, "geometry": { "type": "Point", "coordinates": [ -85.613776, 42.951512 ] } },
{ "type": "Feature", "properties": { "PARKID": "HON01", "NAME": "Aloha Stadium", "CITY": "Honolulu", "STATE": "HI", "START": "1997-04-19", "END": "1997-04-20", "LEAGUE": "NL", "Latitude": 21.372695, "Longitude": -157.929927, "Altitude": 34, "TEAM": null, "CAPACITY": null, "Notes": null }, "geometry": { "type": "Point", "coordinates": [ -157.929927, 21.372695 ] } },
{ "type": "Feature", "properties": { "PARKID": "HOU01", "NAME": "Colt Stadium", "CITY": "Houston", "STATE": "TX", "START": "1962-04-10", "END": "1964-09-27", "LEAGUE": "NL", "Latitude": 29.6889, "Longitude": -95.4089, "Altitude": 55, "TEAM": null, "CAPACITY": null, "Notes": null }, "geometry": { "type": "Point", "coordinates": [ -95.4089, 29.6889 ] } },
{ "type": "Feature", "properties": { "PARKID": "HOU02", "NAME": "Astrodome", "CITY": "Houston", "STATE": "TX", "START": "1965-04-12", "END": "1999-10-03", "LEAGUE": "NL", "Latitude": 29.684812, "Longitude": -95.407775, "Altitude": 52, "TEAM": null, "CAPACITY": null, "Notes": null }, "geometry": { "type": "Point", "coordinates": [ -95.407775, 29.684812 ] } },
{ "type": "Feature", "properties": { "PARKID": "HOU03", "NAME": "Minute Maid Park", "CITY": "Houston", "STATE": "TX", "START": "2000-04-07", "END": null, "LEAGUE": "NL", "Latitude": 29.757041, "Longitude": -95.355429, "Altitude": 20, "TEAM": null, "CAPACITY": null, "Notes": null }, "geometry": { "type": "Point", "coordinates": [ -95.355429, 29.757041 ] } },
{ "type": "Feature", "properties": { "PARKID": "IND01", "NAME": "South Street Park", "CITY": "Indianapolis", "STATE": "IN", "START": "1878-05-01", "END": "1878-09-13", "LEAGUE": "NL", "Latitude": 39.762023, "Longitude": -86.153725, "Altitude": 714, "TEAM": null, "CAPACITY": null, "Notes": null }, "geometry": { "type": "Point", "coordinates": [ -86.153725, 39.762023 ] } },
{ "type": "Feature", "properties": { "PARKID": "IND04", "NAME": "Seventh Street Park II", "CITY": "Indianapolis", "STATE": "IN", "START": "1887-04-28", "END": "1887-10-08", "LEAGUE": "NL", "Latitude": 39.789401, "Longitude": -86.162256, "Altitude": 715, "TEAM": null, "CAPACITY": null, "Notes": null }, "geometry": { "type": "Point", "coordinates": [ -86.162256, 39.789401 ] } },
{ "type": "Feature", "properties": { "PARKID": "IND05", "NAME": "Seventh Street Park III", "CITY": "Indianapolis", "STATE": "IN", "START": "1888-04-20", "END": "1889-10-05", "LEAGUE": "NL", "Latitude": 39.789401, "Longitude": -86.162256, "Altitude": 715, "TEAM": null, "CAPACITY": null, "Notes": null }, "geometry": { "type": "Point", "coordinates": [ -86.162256, 39.789401 ] } },
{ "type": "Feature", "properties": { "PARKID": "IND06", "NAME": "Indianapolis Park", "CITY": "Indianapolis", "STATE": "IN", "START": "1890-07-28", "END": "1890-08-02", "LEAGUE": "NL", "Latitude": 39.770404, "Longitude": -86.134361, "Altitude": 742, "TEAM": null, "CAPACITY": null, "Notes": null }, "geometry": { "type": "Point", "coordinates": [ -86.134361, 39.770404 ] } },
{ "type": "Feature", "properties": { "PARKID": "JER01", "NAME": "Oakland Park", "CITY": "Jersey City", "STATE": "NJ", "START": "1889-04-24", "END": "1889-04-25", "LEAGUE": "NL", "Latitude": 40.733589, "Longitude": -74.053949, "Altitude": 94, "TEAM": null, "CAPACITY": null, "Notes": null }, "geometry": { "type": "Point", "coordinates": [ -74.053949, 40.733589 ] } },
{ "type": "Feature", "properties": { "PARKID": "JER02", "NAME": "Roosevelt Stadium", "CITY": "Jersey City", "STATE": "NJ", "START": "1956-04-19", "END": "1957-09-03", "LEAGUE": "NL", "Latitude": 40.706251, "Longitude": -74.103881, "Altitude": 10, "TEAM": null, "CAPACITY": null, "Notes": null }, "geometry": { "type": "Point", "coordinates": [ -74.103881, 40.706251 ] } },
{ "type": "Feature", "properties": { "PARKID": "KAN05", "NAME": "Municipal Stadium", "CITY": "Kansas City", "STATE": "MO", "START": "1955-04-12", "END": "1972-10-04", "LEAGUE": "AL", "Latitude": 39.086109, "Longitude": -94.557535, "Altitude": 916, "TEAM": null, "CAPACITY": null, "Notes": null }, "geometry": { "type": "Point", "coordinates": [ -94.557535, 39.086109 ] } },
{ "type": "Feature", "properties": { "PARKID": "KAN06", "NAME": "Kauffman Stadium", "CITY": "Kansas City", "STATE": "MO", "START": "1973-04-10", "END": null, "LEAGUE": "AL", "Latitude": 39.051604, "Longitude": -94.480149, "Altitude": 886, "TEAM": null, "CAPACITY": null, "Notes": null }, "geometry": { "type": "Point", "coordinates": [ -94.480149, 39.051604 ] } },
{ "type": "Feature", "properties": { "PARKID": "LAS01", "NAME": "Cashman Field", "CITY": "Las Vegas", "STATE": "NV", "START": "1996-04-01", "END": "1996-04-07", "LEAGUE": "AL", "Latitude": 36.179914, "Longitude": -115.129708, "Altitude": 1907, "TEAM": null, "CAPACITY": null, "Notes": null }, "geometry": { "type": "Point", "coordinates": [ -115.129708, 36.179914 ] } },
{ "type": "Feature", "properties": { "PARKID": "LBV01", "NAME": "Champion Stadium", "CITY": "Lake Buena Vista", "STATE": "FL", "START": "2007-05-15", "END": "2008-04-24", "LEAGUE": "AL", "Latitude": 28.336796, "Longitude": -81.555908, "Altitude": 98, "TEAM": null, "CAPACITY": null, "Notes": null }, "geometry": { "type": "Point", "coordinates": [ -81.555908, 28.336796 ] } },
{ "type": "Feature", "properties": { "PARKID": "LON01", "NAME": "Olympic Stadium", "CITY": "London", "STATE": "EN", "START": "2019-06-29", "END": null, "LEAGUE": "AL", "Latitude": 51.5365, "Longitude": -0.0098, "Altitude": 206, "TEAM": null, "CAPACITY": null, "Notes": null }, "geometry": { "type": "Point", "coordinates": [ -0.0098, 51.5365 ] } },
{ "type": "Feature", "properties": { "PARKID": "LOS01", "NAME": "Los Angeles Memorial Coliseum", "CITY": "Los Angeles", "STATE": "CA", "START": "1958-04-18", "END": "1961-09-20", "LEAGUE": "NL", "Latitude": 34.014019, "Longitude": -118.288009, "Altitude": 139, "TEAM": null, "CAPACITY": null, "Notes": null }, "geometry": { "type": "Point", "coordinates": [ -118.288009, 34.014019 ] } },
{ "type": "Feature", "properties": { "PARKID": "LOS02", "NAME": "Wrigley Field", "CITY": "Los Angeles", "STATE": "CA", "START": "1961-04-27", "END": "1961-10-01", "LEAGUE": "AL", "Latitude": 34.007316, "Longitude": -118.266236, "Altitude": 188, "TEAM": null, "CAPACITY": null, "Notes": null }, "geometry": { "type": "Point", "coordinates": [ -118.266236, 34.007316 ] } },
{ "type": "Feature", "properties": { "PARKID": "LOS03", "NAME": "Dodger Stadium", "CITY": "Los Angeles", "STATE": "CA", "START": "1962-04-10", "END": null, "LEAGUE": "NL", "Latitude": 34.073878, "Longitude": -118.239951, "Altitude": 501, "TEAM": null, "CAPACITY": null, "Notes": null }, "geometry": { "type": "Point", "coordinates": [ -118.239951, 34.073878 ] } },
{ "type": "Feature", "properties": { "PARKID": "LOU01", "NAME": "Louisville Baseball Park", "CITY": "Louisville", "STATE": "KY", "START": "1876-04-25", "END": "1877-09-29", "LEAGUE": "NL", "Latitude": 38.227403, "Longitude": -85.763533, "Altitude": 461, "TEAM": null, "CAPACITY": null, "Notes": null }, "geometry": { "type": "Point", "coordinates": [ -85.763533, 38.227403 ] } },
{ "type": "Feature", "properties": { "PARKID": "LOU03", "NAME": "Eclipse Park II", "CITY": "Louisville", "STATE": "KY", "START": "1893-05-22", "END": "1899-08-02", "LEAGUE": "NL", "Latitude": 38.247254, "Longitude": -85.799672, "Altitude": 452, "TEAM": null, "CAPACITY": null, "Notes": null }, "geometry": { "type": "Point", "coordinates": [ -85.799672, 38.247254 ] } },
{ "type": "Feature", "properties": { "PARKID": "LOU04", "NAME": "Eclipse Park III", "CITY": "Louisville", "STATE": "KY", "START": "1899-08-22", "END": "1899-09-02", "LEAGUE": "NL", "Latitude": 38.245792, "Longitude": -85.799812, "Altitude": 452, "TEAM": null, "CAPACITY": null, "Notes": null }, "geometry": { "type": "Point", "coordinates": [ -85.799812, 38.245792 ] } },
{ "type": "Feature", "properties": { "PARKID": "MIA01", "NAME": "Pro Player Stadium", "CITY": "Miami", "STATE": "FL", "START": "1993-04-05", "END": "2011-09-28", "LEAGUE": "NL", "Latitude": 25.957877, "Longitude": -80.238831, "Altitude": 5, "TEAM": null, "CAPACITY": null, "Notes": null }, "geometry": { "type": "Point", "coordinates": [ -80.238831, 25.957877 ] } },
{ "type": "Feature", "properties": { "PARKID": "MIA02", "NAME": "Marlins Park", "CITY": "Miami", "STATE": "FL", "START": "2012-04-04", "END": null, "LEAGUE": "NL", "Latitude": 25.778165, "Longitude": -80.219541, "Altitude": 6, "TEAM": null, "CAPACITY": null, "Notes": null }, "geometry": { "type": "Point", "coordinates": [ -80.219541, 25.778165 ] } },
{ "type": "Feature", "properties": { "PARKID": "MIL01", "NAME": "Milwaukee Base-Ball Grounds", "CITY": "Milwaukee", "STATE": "WI", "START": "1878-05-14", "END": "1878-09-14", "LEAGUE": "NL", "Latitude": 43.036451, "Longitude": -87.925583, "Altitude": 611, "TEAM": null, "CAPACITY": null, "Notes": null }, "geometry": { "type": "Point", "coordinates": [ -87.925583, 43.036451 ] } },
{ "type": "Feature", "properties": { "PARKID": "MIL04", "NAME": "Lloyd Street Grounds", "CITY": "Milwaukee", "STATE": "WI", "START": "1901-05-03", "END": "1901-09-12", "LEAGUE": "AL", "Latitude": 43.059126, "Longitude": -87.933329, "Altitude": 677, "TEAM": null, "CAPACITY": null, "Notes": null }, "geometry": { "type": "Point", "coordinates": [ -87.933329, 43.059126 ] } },
{ "type": "Feature", "properties": { "PARKID": "MIL06", "NAME": "Miller Park", "CITY": "Milwaukee", "STATE": "WI", "START": "2001-04-06", "END": null, "LEAGUE": "NL", "Latitude": 43.028232, "Longitude": -87.970966, "Altitude": 602, "TEAM": null, "CAPACITY": null, "Notes": null }, "geometry": { "type": "Point", "coordinates": [ -87.970966, 43.028232 ] } },
{ "type": "Feature", "properties": { "PARKID": "MIN02", "NAME": "Metropolitan Stadium", "CITY": "Bloomington", "STATE": "MN", "START": "1961-04-21", "END": "1981-09-30", "LEAGUE": "AL", "Latitude": 44.854783, "Longitude": -93.242921, "Altitude": 821, "TEAM": null, "CAPACITY": null, "Notes": null }, "geometry": { "type": "Point", "coordinates": [ -93.242921, 44.854783 ] } },
{ "type": "Feature", "properties": { "PARKID": "MIN03", "NAME": "Hubert H. Humphrey Metrodome", "CITY": "Minneapolis", "STATE": "MN", "START": "1982-04-06", "END": "2009-10-06", "LEAGUE": "AL", "Latitude": 44.973926, "Longitude": -93.258287, "Altitude": 854, "TEAM": null, "CAPACITY": null, "Notes": null }, "geometry": { "type": "Point", "coordinates": [ -93.258287, 44.973926 ] } },
{ "type": "Feature", "properties": { "PARKID": "MIN04", "NAME": "Target Field", "CITY": "Minneapolis", "STATE": "MN", "START": "2010-04-12", "END": null, "LEAGUE": "AL", "Latitude": 44.981749, "Longitude": -93.278026, "Altitude": 840, "TEAM": null, "CAPACITY": null, "Notes": null }, "geometry": { "type": "Point", "coordinates": [ -93.278026, 44.981749 ] } },
{ "type": "Feature", "properties": { "PARKID": "MNT01", "NAME": "Estadio Monterrey", "CITY": "Monterrey", "STATE": "MX", "START": "1996-08-16", "END": "2018-05-06", "LEAGUE": "NL", "Latitude": 25.718006, "Longitude": -100.315407, "Altitude": 1743, "TEAM": null, "CAPACITY": null, "Notes": null }, "geometry": { "type": "Point", "coordinates": [ -100.315407, 25.718006 ] } },
{ "type": "Feature", "properties": { "PARKID": "MON01", "NAME": "Parc Jarry", "CITY": "Montreal", "STATE": "QUE", "START": "1969-04-14", "END": "1976-09-26", "LEAGUE": "NL", "Latitude": 45.53291, "Longitude": -73.627094, "Altitude": 190, "TEAM": null, "CAPACITY": null, "Notes": null }, "geometry": { "type": "Point", "coordinates": [ -73.627094, 45.53291 ] } },
{ "type": "Feature", "properties": { "PARKID": "MON02", "NAME": "Stade Olympique", "CITY": "Montreal", "STATE": "QUE", "START": "1977-04-15", "END": "2004-09-29", "LEAGUE": "NL", "Latitude": 45.557969, "Longitude": -73.551925, "Altitude": 89, "TEAM": null, "CAPACITY": null, "Notes": null }, "geometry": { "type": "Point", "coordinates": [ -73.551925, 45.557969 ] } },
{ "type": "Feature", "properties": { "PARKID": "NWK01", "NAME": "Wiedenmeyer's Park", "CITY": "Newark", "STATE": "NJ", "START": "1904-07-17", "END": "1904-07-17", "LEAGUE": "AL", "Latitude": 40.7195, "Longitude": -74.1468, "Altitude": 13, "TEAM": null, "CAPACITY": null, "Notes": null }, "geometry": { "type": "Point", "coordinates": [ -74.1468, 40.7195 ] } },
{ "type": "Feature", "properties": { "PARKID": "NYC09", "NAME": "Polo Grounds III", "CITY": "New York", "STATE": "NY", "START": "1889-07-08", "END": "1890-09-13", "LEAGUE": "NL", "Latitude": 40.830228, "Longitude": -73.938505, "Altitude": 18, "TEAM": null, "CAPACITY": null, "Notes": null }, "geometry": { "type": "Point", "coordinates": [ -73.938505, 40.830228 ] } },
{ "type": "Feature", "properties": { "PARKID": "NYC15", "NAME": "Ebbets Field", "CITY": "Brooklyn", "STATE": "NY", "START": "1913-04-09", "END": "1957-09-24", "LEAGUE": "NL", "Latitude": 40.664768, "Longitude": -73.958374, "Altitude": 84, "TEAM": null, "CAPACITY": null, "Notes": null }, "geometry": { "type": "Point", "coordinates": [ -73.958374, 40.664768 ] } },
{ "type": "Feature", "properties": { "PARKID": "NYC16", "NAME": "Yankee Stadium I", "CITY": "New York", "STATE": "NY", "START": "1923-04-18", "END": "2008-09-21", "LEAGUE": "AL", "Latitude": 40.826959, "Longitude": -73.927749, "Altitude": 18, "TEAM": null, "CAPACITY": null, "Notes": null }, "geometry": { "type": "Point", "coordinates": [ -73.927749, 40.826959 ] } },
{ "type": "Feature", "properties": { "PARKID": "NYC17", "NAME": "Shea Stadium", "CITY": "New York", "STATE": "NY", "START": "1964-04-17", "END": "2008-09-28", "LEAGUE": "NL", "Latitude": 40.755753, "Longitude": -73.847814, "Altitude": 13, "TEAM": null, "CAPACITY": null, "Notes": null }, "geometry": { "type": "Point", "coordinates": [ -73.847814, 40.755753 ] } },
{ "type": "Feature", "properties": { "PARKID": "NYC20", "NAME": "Citi Field", "CITY": "New York", "STATE": "NY", "START": "2009-04-13", "END": null, "LEAGUE": "NL", "Latitude": 40.757134, "Longitude": -73.84584, "Altitude": 13, "TEAM": null, "CAPACITY": null, "Notes": null }, "geometry": { "type": "Point", "coordinates": [ -73.84584, 40.757134 ] } },
{ "type": "Feature", "properties": { "PARKID": "NYC21", "NAME": "New Yankee Stadium", "CITY": "New York", "STATE": "NY", "START": "2009-04-16", "END": null, "LEAGUE": "AL", "Latitude": 40.829586, "Longitude": -73.926413, "Altitude": 11, "TEAM": null, "CAPACITY": null, "Notes": null }, "geometry": { "type": "Point", "coordinates": [ -73.926413, 40.829586 ] } },
{ "type": "Feature", "properties": { "PARKID": "OAK01", "NAME": "Oakland-Alameda County Coliseum", "CITY": "Oakland", "STATE": "CA", "START": "1968-04-17", "END": null, "LEAGUE": "AL", "Latitude": 37.751619, "Longitude": -122.200451, "Altitude": 0, "TEAM": null, "CAPACITY": null, "Notes": null }, "geometry": { "type": "Point", "coordinates": [ -122.200451, 37.751619 ] } },
{ "type": "Feature", "properties": { "PARKID": "OMA01", "NAME": "TD Ameritrade Park", "CITY": "Omaha", "STATE": "NE", "START": "2019-06-13", "END": "2019-06-13", "LEAGUE": "AL", "Latitude": 41.267, "Longitude": -95.932, "Altitude": 989, "TEAM": null, "CAPACITY": null, "Notes": null }, "geometry": { "type": "Point", "coordinates": [ -95.932, 41.267 ] } },
{ "type": "Feature", "properties": { "PARKID": "PHI04", "NAME": "Recreation Park", "CITY": "Philadelphia", "STATE": "PA", "START": "1883-05-01", "END": "1886-10-09", "LEAGUE": "NL", "Latitude": 39.981581, "Longitude": -75.174812, "Altitude": 104, "TEAM": null, "CAPACITY": null, "Notes": null }, "geometry": { "type": "Point", "coordinates": [ -75.174812, 39.981581 ] } },
{ "type": "Feature", "properties": { "PARKID": "PHI06", "NAME": "Huntingdon Grounds I", "CITY": "Philadelphia", "STATE": "PA", "START": "1887-04-30", "END": "1894-08-04", "LEAGUE": "NL", "Latitude": 39.993268, "Longitude": -75.155638, "Altitude": 98, "TEAM": null, "CAPACITY": null, "Notes": null }, "geometry": { "type": "Point", "coordinates": [ -75.155638, 39.993268 ] } },
{ "type": "Feature", "properties": { "PARKID": "PHI08", "NAME": "University of Penn. Athletic Field", "CITY": "Philadelphia", "STATE": "PA", "START": "1894-08-11", "END": "1894-08-17", "LEAGUE": "NL", "Latitude": 39.950685, "Longitude": -75.199004, "Altitude": 77, "TEAM": null, "CAPACITY": null, "Notes": null }, "geometry": { "type": "Point", "coordinates": [ -75.199004, 39.950685 ] } },
{ "type": "Feature", "properties": { "PARKID": "PHI09", "NAME": "Baker Bowl", "CITY": "Philadelphia", "STATE": "PA", "START": "1895-05-02", "END": "1938-06-30", "LEAGUE": "NL", "Latitude": 39.993268, "Longitude": -75.155638, "Altitude": 98, "TEAM": null, "CAPACITY": null, "Notes": null }, "geometry": { "type": "Point", "coordinates": [ -75.155638, 39.993268 ] } },
{ "type": "Feature", "properties": { "PARKID": "PHI12", "NAME": "Veterans Stadium", "CITY": "Philadelphia", "STATE": "PA", "START": "1971-04-10", "END": "2003-09-28", "LEAGUE": "NL", "Latitude": 39.906537, "Longitude": -75.171495, "Altitude": 18, "TEAM": null, "CAPACITY": null, "Notes": null }, "geometry": { "type": "Point", "coordinates": [ -75.171495, 39.906537 ] } },
{ "type": "Feature", "properties": { "PARKID": "PHI13", "NAME": "Citizens Bank Park", "CITY": "Philadelphia", "STATE": "PA", "START": "2004-04-12", "END": null, "LEAGUE": "NL", "Latitude": 39.906109, "Longitude": -75.166485, "Altitude": 19, "TEAM": null, "CAPACITY": null, "Notes": null }, "geometry": { "type": "Point", "coordinates": [ -75.166485, 39.906109 ] } },
{ "type": "Feature", "properties": { "PARKID": "PHI14", "NAME": "Huntingdon Grounds II", "CITY": "Philadelphia", "STATE": "PA", "START": "1894-08-18", "END": "1894-09-06", "LEAGUE": "NL", "Latitude": 39.993268, "Longitude": -75.155638, "Altitude": 98, "TEAM": null, "CAPACITY": null, "Notes": null }, "geometry": { "type": "Point", "coordinates": [ -75.155638, 39.993268 ] } },
{ "type": "Feature", "properties": { "PARKID": "PHO01", "NAME": "Chase Field", "CITY": "Phoenix", "STATE": "AZ", "START": "1998-03-31", "END": null, "LEAGUE": "NL", "Latitude": 33.44542, "Longitude": -112.066793, "Altitude": 1059, "TEAM": null, "CAPACITY": null, "Notes": null }, "geometry": { "type": "Point", "coordinates": [ -112.066793, 33.44542 ] } },
{ "type": "Feature", "properties": { "PARKID": "PIT01", "NAME": "Union Park", "CITY": "Pittsburgh", "STATE": "PA", "START": "1878-08-22", "END": "1878-08-24", "LEAGUE": "NL", "Latitude": 40.452295, "Longitude": -80.030175, "Altitude": 767, "TEAM": null, "CAPACITY": null, "Notes": null }, "geometry": { "type": "Point", "coordinates": [ -80.030175, 40.452295 ] } },
{ "type": "Feature", "properties": { "PARKID": "PIT06", "NAME": "Forbes Field", "CITY": "Pittsburgh", "STATE": "PA", "START": "1909-06-30", "END": "1970-06-28", "LEAGUE": "NL", "Latitude": 40.441302, "Longitude": -79.953449, "Altitude": 893, "TEAM": null, "CAPACITY": null, "Notes": null }, "geometry": { "type": "Point", "coordinates": [ -79.953449, 40.441302 ] } },
{ "type": "Feature", "properties": { "PARKID": "PIT07", "NAME": "Three Rivers Stadium", "CITY": "Pittsburgh", "STATE": "PA", "START": "1970-07-16", "END": "2000-10-01", "LEAGUE": "NL", "Latitude": 40.446533, "Longitude": -80.012614, "Altitude": 730, "TEAM": null, "CAPACITY": null, "Notes": null }, "geometry": { "type": "Point", "coordinates": [ -80.012614, 40.446533 ] } },
{ "type": "Feature", "properties": { "PARKID": "PIT08", "NAME": "PNC Park", "CITY": "Pittsburgh", "STATE": "PA", "START": "2001-04-09", "END": null, "LEAGUE": "NL", "Latitude": 40.446835, "Longitude": -80.005683, "Altitude": 724, "TEAM": null, "CAPACITY": null, "Notes": null }, "geometry": { "type": "Point", "coordinates": [ -80.005683, 40.446835 ] } },
{ "type": "Feature", "properties": { "PARKID": "PRO02", "NAME": "Messer Street Grounds", "CITY": "Providence", "STATE": "RI", "START": "1878-05-01", "END": "1885-09-09", "LEAGUE": "NL", "Latitude": 41.813501, "Longitude": -71.436952, "Altitude": 83, "TEAM": null, "CAPACITY": null, "Notes": null }, "geometry": { "type": "Point", "coordinates": [ -71.436952, 41.813501 ] } },
{ "type": "Feature", "properties": { "PARKID": "ROC02", "NAME": "Culver Field II", "CITY": "Rochester", "STATE": "NY", "START": "1898-08-27", "END": "1898-08-29", "LEAGUE": "NL", "Latitude": 43.15464, "Longitude": -77.576033, "Altitude": 492, "TEAM": null, "CAPACITY": null, "Notes": null }, "geometry": { "type": "Point", "coordinates": [ -77.576033, 43.15464 ] } },
{ "type": "Feature", "properties": { "PARKID": "ROC03", "NAME": "Ontario Beach Grounds", "CITY": "Rochester", "STATE": "NY", "START": "1898-08-28", "END": "1898-08-28", "LEAGUE": "NL", "Latitude": 43.256802, "Longitude": -77.606814, "Altitude": 268, "TEAM": null, "CAPACITY": null, "Notes": null }, "geometry": { "type": "Point", "coordinates": [ -77.606814, 43.256802 ] } },
{ "type": "Feature", "properties": { "PARKID": "SAN01", "NAME": "Jack Murphy Stadium", "CITY": "San Diego", "STATE": "CA", "START": "1969-04-08", "END": "2003-09-28", "LEAGUE": "NL", "Latitude": 32.783073, "Longitude": -117.119645, "Altitude": 83, "TEAM": null, "CAPACITY": null, "Notes": null }, "geometry": { "type": "Point", "coordinates": [ -117.119645, 32.783073 ] } },
{ "type": "Feature", "properties": { "PARKID": "SAN02", "NAME": "Petco Park", "CITY": "San Diego", "STATE": "CA", "START": "2004-04-08", "END": null, "LEAGUE": "NL", "Latitude": 32.70753, "Longitude": -117.157056, "Altitude": 14, "TEAM": null, "CAPACITY": null, "Notes": null }, "geometry": { "type": "Point", "coordinates": [ -117.157056, 32.70753 ] } },
{ "type": "Feature", "properties": { "PARKID": "SEA01", "NAME": "Sicks' Stadium", "CITY": "Seattle", "STATE": "WA", "START": "1969-04-11", "END": "1969-10-02", "LEAGUE": "AL", "Latitude": 47.579199, "Longitude": -122.297403, "Altitude": 61, "TEAM": null, "CAPACITY": null, "Notes": null }, "geometry": { "type": "Point", "coordinates": [ -122.297403, 47.579199 ] } },
{ "type": "Feature", "properties": { "PARKID": "SEA02", "NAME": "Kingdome", "CITY": "Seattle", "STATE": "WA", "START": "1977-04-06", "END": "1999-06-27", "LEAGUE": "AL", "Latitude": 47.595133, "Longitude": -122.331639, "Altitude": 17, "TEAM": null, "CAPACITY": null, "Notes": null }, "geometry": { "type": "Point", "coordinates": [ -122.331639, 47.595133 ] } },
{ "type": "Feature", "properties": { "PARKID": "SEA03", "NAME": "T-Mobile Park", "CITY": "Seattle", "STATE": "WA", "START": "1999-07-15", "END": null, "LEAGUE": "AL", "Latitude": 47.591443, "Longitude": -122.332283, "Altitude": 17, "TEAM": null, "CAPACITY": null, "Notes": null }, "geometry": { "type": "Point", "coordinates": [ -122.332283, 47.591443 ] } },
{ "type": "Feature", "properties": { "PARKID": "SFO01", "NAME": "Seals Stadium", "CITY": "San Francisco", "STATE": "CA", "START": "1958-04-15", "END": "1959-09-20", "LEAGUE": "NL", "Latitude": 37.766774, "Longitude": -122.409337, "Altitude": 61, "TEAM": null, "CAPACITY": null, "Notes": null }, "geometry": { "type": "Point", "coordinates": [ -122.409337, 37.766774 ] } },
{ "type": "Feature", "properties": { "PARKID": "SFO02", "NAME": "Candlestick Park", "CITY": "San Francisco", "STATE": "CA", "START": "1960-04-12", "END": "1999-09-30", "LEAGUE": "NL", "Latitude": 37.713297, "Longitude": -122.38627, "Altitude": 135, "TEAM": null, "CAPACITY": null, "Notes": null }, "geometry": { "type": "Point", "coordinates": [ -122.38627, 37.713297 ] } },
{ "type": "Feature", "properties": { "PARKID": "SFO03", "NAME": "Oracle Park", "CITY": "San Francisco", "STATE": "CA", "START": "2000-04-11", "END": null, "LEAGUE": "NL", "Latitude": 37.778324, "Longitude": -122.389221, "Altitude": 8, "TEAM": null, "CAPACITY": null, "Notes": null }, "geometry": { "type": "Point", "coordinates": [ -122.389221, 37.778324 ] } },
{ "type": "Feature", "properties": { "PARKID": "SJU01", "NAME": "Estadio Hiram Bithorn", "CITY": "San Juan", "STATE": "PR", "START": "2001-04-01", "END": "2018-04-18", "LEAGUE": "NL", "Latitude": 18.416612, "Longitude": -66.072787, "Altitude": 10, "TEAM": null, "CAPACITY": null, "Notes": null }, "geometry": { "type": "Point", "coordinates": [ -66.072787, 18.416612 ] } },
{ "type": "Feature", "properties": { "PARKID": "STL05", "NAME": "Robison Field", "CITY": "St. Louis", "STATE": "MO", "START": "1893-04-27", "END": "1920-06-06", "LEAGUE": "NL", "Latitude": 38.662799, "Longitude": -90.222147, "Altitude": 500, "TEAM": null, "CAPACITY": null, "Notes": null }, "geometry": { "type": "Point", "coordinates": [ -90.222147, 38.662799 ] } },
{ "type": "Feature", "properties": { "PARKID": "STL06", "NAME": "Sportsman's Park II", "CITY": "St. Louis", "STATE": "MO", "START": "1902-04-23", "END": "1908-10-06", "LEAGUE": "AL", "Latitude": 38.657795, "Longitude": -90.220619, "Altitude": 492, "TEAM": null, "CAPACITY": null, "Notes": null }, "geometry": { "type": "Point", "coordinates": [ -90.220619, 38.657795 ] } },
{ "type": "Feature", "properties": { "PARKID": "STL09", "NAME": "Busch Stadium II", "CITY": "St. Louis", "STATE": "MO", "START": "1966-05-12", "END": "2005-10-02", "LEAGUE": "NL", "Latitude": 38.62393, "Longitude": -90.192326, "Altitude": 460, "TEAM": null, "CAPACITY": null, "Notes": null }, "geometry": { "type": "Point", "coordinates": [ -90.192326, 38.62393 ] } },
{ "type": "Feature", "properties": { "PARKID": "STL10", "NAME": "Busch Stadium III", "CITY": "St. Louis", "STATE": "MO", "START": "2006-04-10", "END": null, "LEAGUE": "NL", "Latitude": 38.622622, "Longitude": -90.192841, "Altitude": 438, "TEAM": null, "CAPACITY": null, "Notes": null }, "geometry": { "type": "Point", "coordinates": [ -90.192841, 38.622622 ] } },
{ "type": "Feature", "properties": { "PARKID": "STP01", "NAME": "Tropicana Field", "CITY": "St. Petersburg", "STATE": "FL", "START": "1998-03-31", "END": null, "LEAGUE": "AL", "Latitude": 27.768254, "Longitude": -82.653431, "Altitude": 41, "TEAM": null, "CAPACITY": null, "Notes": null }, "geometry": { "type": "Point", "coordinates": [ -82.653431, 27.768254 ] } },
{ "type": "Feature", "properties": { "PARKID": "SYD01", "NAME": "Sydney Cricket Ground", "CITY": "Sydney", "STATE": "AUS", "START": "2014-03-22", "END": "2014-03-23", "LEAGUE": "NL", "Latitude": -33.891699, "Longitude": 151.224729, "Altitude": 190, "TEAM": null, "CAPACITY": null, "Notes": null }, "geometry": { "type": "Point", "coordinates": [ 151.224729, -33.891699 ] } },
{ "type": "Feature", "properties": { "PARKID": "SYR01", "NAME": "Star Park I", "CITY": "Syracuse", "STATE": "NY", "START": "1879-05-28", "END": "1879-09-10", "LEAGUE": "NL", "Latitude": 43.034993, "Longitude": -76.148711, "Altitude": 392, "TEAM": null, "CAPACITY": null, "Notes": null }, "geometry": { "type": "Point", "coordinates": [ -76.148711, 43.034993 ] } },
{ "type": "Feature", "properties": { "PARKID": "TOL04", "NAME": "Armory Park", "CITY": "Toledo", "STATE": "OH", "START": "1903-06-28", "END": "1903-08-16", "LEAGUE": "AL", "Latitude": 41.656331, "Longitude": -83.536221, "Altitude": 597, "TEAM": null, "CAPACITY": null, "Notes": null }, "geometry": { "type": "Point", "coordinates": [ -83.536221, 41.656331 ] } },
{ "type": "Feature", "properties": { "PARKID": "TOR01", "NAME": "Exhibition Stadium", "CITY": "Toronto", "STATE": "ONT", "START": "1977-04-07", "END": "1989-05-28", "LEAGUE": "AL", "Latitude": 43.632568, "Longitude": -79.417679, "Altitude": 273, "TEAM": null, "CAPACITY": null, "Notes": null }, "geometry": { "type": "Point", "coordinates": [ -79.417679, 43.632568 ] } },
{ "type": "Feature", "properties": { "PARKID": "TOR02", "NAME": "Rogers Centre", "CITY": "Toronto", "STATE": "ONT", "START": "1989-06-05", "END": null, "LEAGUE": "AL", "Latitude": 43.641256, "Longitude": -79.389054, "Altitude": 268, "TEAM": null, "CAPACITY": null, "Notes": null }, "geometry": { "type": "Point", "coordinates": [ -79.389054, 43.641256 ] } },
{ "type": "Feature", "properties": { "PARKID": "TRO02", "NAME": "Putnam Grounds", "CITY": "Troy", "STATE": "NY", "START": "1879-05-28", "END": "1879-09-20", "LEAGUE": "NL", "Latitude": 42.733038, "Longitude": -73.676616, "Altitude": 250, "TEAM": null, "CAPACITY": null, "Notes": null }, "geometry": { "type": "Point", "coordinates": [ -73.676616, 42.733038 ] } },
{ "type": "Feature", "properties": { "PARKID": "WAR01", "NAME": "Rocky Point Park", "CITY": "Warwick", "STATE": "RI", "START": "1903-09-06", "END": "1903-09-06", "LEAGUE": "NL", "Latitude": 41.690486, "Longitude": -71.364405, "Altitude": 38, "TEAM": null, "CAPACITY": null, "Notes": null }, "geometry": { "type": "Point", "coordinates": [ -71.364405, 41.690486 ] } },
{ "type": "Feature", "properties": { "PARKID": "WAS05", "NAME": "Swampoodle Grounds", "CITY": "Washington", "STATE": "DC", "START": "1886-04-29", "END": "1889-09-21", "LEAGUE": "NL", "Latitude": 38.898236, "Longitude": -77.007383, "Altitude": 40, "TEAM": null, "CAPACITY": null, "Notes": null }, "geometry": { "type": "Point", "coordinates": [ -77.007383, 38.898236 ] } },
{ "type": "Feature", "properties": { "PARKID": "WAS07", "NAME": "American League Park I", "CITY": "Washington", "STATE": "DC", "START": "1901-04-29", "END": "1903-09-28", "LEAGUE": "AL", "Latitude": 38.901672, "Longitude": -76.986996, "Altitude": 48, "TEAM": null, "CAPACITY": null, "Notes": null }, "geometry": { "type": "Point", "coordinates": [ -76.986996, 38.901672 ] } },
{ "type": "Feature", "properties": { "PARKID": "WAS08", "NAME": "American League Park II", "CITY": "Washington", "STATE": "DC", "START": "1904-04-14", "END": "1910-10-06", "LEAGUE": "AL", "Latitude": 38.917576, "Longitude": -77.020191, "Altitude": 100, "TEAM": null, "CAPACITY": null, "Notes": null }, "geometry": { "type": "Point", "coordinates": [ -77.020191, 38.917576 ] } },
{ "type": "Feature", "properties": { "PARKID": "WAS09", "NAME": "Griffith Stadium", "CITY": "Washington", "STATE": "DC", "START": "1911-04-12", "END": "1961-09-21", "LEAGUE": "AL", "Latitude": 38.917576, "Longitude": -77.020191, "Altitude": 100, "TEAM": null, "CAPACITY": null, "Notes": null }, "geometry": { "type": "Point", "coordinates": [ -77.020191, 38.917576 ] } },
{ "type": "Feature", "properties": { "PARKID": "WAS11", "NAME": "Nationals Park", "CITY": "Washington", "STATE": "DC", "START": "2008-03-30", "END": null, "LEAGUE": "NL", "Latitude": 38.872987, "Longitude": -77.007435, "Altitude": 23, "TEAM": null, "CAPACITY": null, "Notes": null }, "geometry": { "type": "Point", "coordinates": [ -77.007435, 38.872987 ] } },
{ "type": "Feature", "properties": { "PARKID": "WAT01", "NAME": "Troy Ball Club Grounds", "CITY": "Watervliet", "STATE": "NY", "START": "1882-05-20", "END": "1882-08-26", "LEAGUE": "NL", "Latitude": 42.732806, "Longitude": -73.70947, "Altitude": 47, "TEAM": null, "CAPACITY": null, "Notes": null }, "geometry": { "type": "Point", "coordinates": [ -73.70947, 42.732806 ] } },
{ "type": "Feature", "properties": { "PARKID": "WHE01", "NAME": "Island Grounds", "CITY": "Wheeling", "STATE": "WV", "START": "1890-09-22", "END": "1890-09-22", "LEAGUE": "NL", "Latitude": 40.063386, "Longitude": -80.733735, "Altitude": 649, "TEAM": null, "CAPACITY": null, "Notes": null }, "geometry": { "type": "Point", "coordinates": [ -80.733735, 40.063386 ] } },
{ "type": "Feature", "properties": { "PARKID": "WIL02", "NAME": "Bowman Field", "CITY": "Williamsport", "STATE": "PA", "START": "2017-08-20", "END": "2018-08-19", "LEAGUE": "NL", "Latitude": 41.242347, "Longitude": -77.047067, "Altitude": 518, "TEAM": null, "CAPACITY": null, "Notes": null }, "geometry": { "type": "Point", "coordinates": [ -77.047067, 41.242347 ] } },
{ "type": "Feature", "properties": { "PARKID": "WNY01", "NAME": "West New York Field Club Grounds", "CITY": "West New York", "STATE": "NJ", "START": "1898-09-11", "END": "1899-09-17", "LEAGUE": "NL", "Latitude": 40.772796, "Longitude": -74.019648, "Altitude": 175, "TEAM": null, "CAPACITY": null, "Notes": null }, "geometry": { "type": "Point", "coordinates": [ -74.019648, 40.772796 ] } },
{ "type": "Feature", "properties": { "PARKID": "WOR01", "NAME": "Agricultural County Fair Grounds I", "CITY": "Worcester", "STATE": "MA", "START": "1880-05-01", "END": "1882-09-29", "LEAGUE": "NL", "Latitude": 42.268844, "Longitude": -71.814226, "Altitude": 496, "TEAM": null, "CAPACITY": null, "Notes": null }, "geometry": { "type": "Point", "coordinates": [ -71.814226, 42.268844 ] } },
{ "type": "Feature", "properties": { "PARKID": "WOR02", "NAME": "Agricultural County Fair Grounds II", "CITY": "Worcester", "STATE": "MA", "START": "1887-08-17", "END": "1887-08-17", "LEAGUE": "NL", "Latitude": 42.268844, "Longitude": -71.814226, "Altitude": 496, "TEAM": null, "CAPACITY": null, "Notes": null }, "geometry": { "type": "Point", "coordinates": [ -71.814226, 42.268844 ] } }
]
}
