{
"type": "FeatureCollection",
"crs": { "type": "name", "properties": { "name": "urn:ogc:def:crs:OGC:1.3:CRS84" } },
"features": [
{ "type": "Feature", "properties": { "PARKID": "ALB01", "NAME": "Riverside Park", "CITY": "East Albany", "STATE": "NY", "START": "1880-09-11", "END": "1882-05-30", "LEAGUE": "NL", "NOTES": "TRN:9/11/80;6/15&9/10/1881;5/16-5/18&5/30/1882", "AKA": "Greenbush Grounds", "Exact": "Y", "Latitude": 42.642295, "Longitude": -73.745198, "Altitude": 14 }, "geometry": { "type": "Point", "coordinates": [ -73.745198, 42.642295 ] } },
{ "type": "Feature", "properties": { "PARKID": "ALT01", "NAME": "Columbia Park", "CITY": "Altoona", "STATE": "PA", "START": "1884-04-30", "END": "1884-05-31", "LEAGUE": "UA", "NOTES": null, "AKA": "4th Ave Grounds; Waverly Field", "Exact": "Y", "Latitude": 40.494582, "Longitude": -78.411164, "Altitude": 1129 }, "geometry": { "type": "Point", "coordinates": [ -78.411164, 40.494582 ] } },
{ "type": "Feature", "properties": { "PARKID": "ANA01", "NAME": "Angel Stadium of Anaheim", "CITY": "Anaheim", "STATE": "CA", "START": "1966-04-19", "END": null, "LEAGUE": "AL", "NOTES": null, "AKA": "Anaheim Stadium; Edison Field", "Exact": "Y", "Latitude": 33.80029, "Longitude": -117.882685, "Altitude": 154 }, "geometry": { "type": "Point", "coordinates": [ -117.882685, 33.80029 ] } },
{ "type": "Feature", "properties": { "PARKID": "ARL01", "NAME": "Arlington Stadium", "CITY": "Arlington", "STATE": "TX", "START": "1972-04-21", "END": "1993-10-03", "LEAGUE": "AL", "NOTES": null, "AKA": null, "Exact": "Y", "Latitude": 32.755974, "Longitude": -97.084778, "Altitude": 552 }, "geometry": { "type": "Point", "coordinates": [ -97.084778, 32.755974 ] } },
{ "type": "Feature", "properties": { "PARKID": "ARL02", "NAME": "Globe Life Park", "CITY": "Arlington", "STATE": "TX", "START": "1994-04-11", "END": "2019-09-29", "LEAGUE": "AL", "NOTES": null, "AKA": "Rangers Ballpark in Arlington; The Ballpark in Arlington; Ameriquest Field", "Exact": "Y", "Latitude": 32.751164, "Longitude": -97.082546, "Altitude": 549 }, "geometry": { "type": "Point", "coordinates": [ -97.082546, 32.751164 ] } },
{ "type": "Feature", "properties": { "PARKID": "ATL01", "NAME": "Atlanta-Fulton County Stadium", "CITY": "Atlanta", "STATE": "GA", "START": "1966-04-12", "END": "1996-09-23", "LEAGUE": "NL", "NOTES": null, "AKA": "Atlanta Stadium", "Exact": "Y", "Latitude": 33.739457, "Longitude": -84.389486, "Altitude": 979 }, "geometry": { "type": "Point", "coordinates": [ -84.389486, 33.739457 ] } },
{ "type": "Feature", "properties": { "PARKID": "ATL02", "NAME": "Turner Field", "CITY": "Atlanta", "STATE": "GA", "START": "1997-04-04", "END": "2016-10-02", "LEAGUE": "NL", "NOTES": null, "AKA": null, "Exact": "Y", "Latitude": 33.735487, "Longitude": -84.389464, "Altitude": 939 }, "geometry": { "type": "Point", "coordinates": [ -84.389464, 33.735487 ] } },
{ "type": "Feature", "properties": { "PARKID": "ATL03", "NAME": "SunTrust Park", "CITY": "Atlanta", "STATE": "GA", "START": "2017-04-14", "END": null, "LEAGUE": "NL", "NOTES": null, "AKA": null, "Exact": "Y", "Latitude": 33.89127, "Longitude": -84.4681, "Altitude": 981 }, "geometry": { "type": "Point", "coordinates": [ -84.4681, 33.89127 ] } },
{ "type": "Feature", "properties": { "PARKID": "BAL01", "NAME": "Madison Avenue Grounds", "CITY": "Baltimore", "STATE": "MD", "START": "1871-07-08", "END": "1871-07-08", "LEAGUE": null, "NOTES": "WS3", "AKA": "Pastime Base Ball Grounds", "Exact": "Y", "Latitude": 39.309376, "Longitude": -76.632022, "Altitude": 167 }, "geometry": { "type": "Point", "coordinates": [ -76.632022, 39.309376 ] } },
{ "type": "Feature", "properties": { "PARKID": "BAL02", "NAME": "Newington Park", "CITY": "Baltimore", "STATE": "MD", "START": "1872-04-22", "END": "1882-09-30", "LEAGUE": null, "NOTES": "BL1:1872-74; BL4:1873; BL2: 1882", "AKA": null, "Exact": "Y", "Latitude": 39.307192, "Longitude": -76.640809, "Altitude": 195 }, "geometry": { "type": "Point", "coordinates": [ -76.640809, 39.307192 ] } },
{ "type": "Feature", "properties": { "PARKID": "BAL03", "NAME": "Oriole Park I", "CITY": "Baltimore", "STATE": "MD", "START": "1883-05-01", "END": "1888-10-13", "LEAGUE": "AA", "NOTES": null, "AKA": "Union Park; Huntingdon Avenue Grounds ; American Association Park", "Exact": "Y", "Latitude": 39.317701, "Longitude": -76.610897, "Altitude": 164 }, "geometry": { "type": "Point", "coordinates": [ -76.610897, 39.317701 ] } },
{ "type": "Feature", "properties": { "PARKID": "BAL04", "NAME": "Belair Lot", "CITY": "Baltimore", "STATE": "MD", "START": "1884-04-17", "END": "1884-09-24", "LEAGUE": "UA", "NOTES": "BLU:not 8/25", "AKA": "Union Park", "Exact": "Y", "Latitude": 39.294656, "Longitude": -76.604953, "Altitude": 25 }, "geometry": { "type": "Point", "coordinates": [ -76.604953, 39.294656 ] } },
{ "type": "Feature", "properties": { "PARKID": "BAL05", "NAME": "Monumental Park", "CITY": "Baltimore", "STATE": "MD", "START": "1884-08-25", "END": "1884-08-25", "LEAGUE": "UA", "NOTES": "BLU", "AKA": null, "Exact": "N", "Latitude": 39.29044, "Longitude": -76.612154, "Altitude": 32 }, "geometry": { "type": "Point", "coordinates": [ -76.612154, 39.29044 ] } },
{ "type": "Feature", "properties": { "PARKID": "BAL06", "NAME": "Oriole Park II", "CITY": "Baltimore", "STATE": "MD", "START": "1889-04-18", "END": "1891-05-09", "LEAGUE": "AA", "NOTES": null, "AKA": null, "Exact": "Y", "Latitude": 39.322914, "Longitude": -76.610017, "Altitude": 194 }, "geometry": { "type": "Point", "coordinates": [ -76.610017, 39.322914 ] } },
{ "type": "Feature", "properties": { "PARKID": "BAL07", "NAME": "Oriole Park III", "CITY": "Baltimore", "STATE": "MD", "START": "1891-05-11", "END": "1899-10-10", "LEAGUE": null, "NOTES": "BL3:1891; BLN:1892-99", "AKA": "Union Park; Baltimore Baseball and Exhibition Grounds", "Exact": "Y", "Latitude": 39.317361, "Longitude": -76.612034, "Altitude": 153 }, "geometry": { "type": "Point", "coordinates": [ -76.612034, 39.317361 ] } },
{ "type": "Feature", "properties": { "PARKID": "BAL09", "NAME": "Oriole Park IV", "CITY": "Baltimore", "STATE": "MD", "START": "1901-04-26", "END": "1902-09-29", "LEAGUE": "AL", "NOTES": null, "AKA": "American League Park", "Exact": "Y", "Latitude": 39.323868, "Longitude": -76.609953, "Altitude": 202 }, "geometry": { "type": "Point", "coordinates": [ -76.609953, 39.323868 ] } },
{ "type": "Feature", "properties": { "PARKID": "BAL10", "NAME": "Terrapin Park", "CITY": "Baltimore", "STATE": "MD", "START": "1914-04-13", "END": "1915-10-02", "LEAGUE": "FL", "NOTES": null, "AKA": "Federal League Park; Oriole Park", "Exact": "Y", "Latitude": 39.324001, "Longitude": -76.60991, "Altitude": 203 }, "geometry": { "type": "Point", "coordinates": [ -76.60991, 39.324001 ] } },
{ "type": "Feature", "properties": { "PARKID": "BAL11", "NAME": "Memorial Stadium", "CITY": "Baltimore", "STATE": "MD", "START": "1954-04-15", "END": "1991-10-06", "LEAGUE": "AL", "NOTES": null, "AKA": null, "Exact": "Y", "Latitude": 39.330001, "Longitude": -76.601488, "Altitude": 231 }, "geometry": { "type": "Point", "coordinates": [ -76.601488, 39.330001 ] } },
{ "type": "Feature", "properties": { "PARKID": "BAL12", "NAME": "Oriole Park at Camden Yards", "CITY": "Baltimore", "STATE": "MD", "START": "1992-04-06", "END": null, "LEAGUE": "AL", "NOTES": null, "AKA": "Camden Yards", "Exact": "Y", "Latitude": 39.283944, "Longitude": -76.621572, "Altitude": 35 }, "geometry": { "type": "Point", "coordinates": [ -76.621572, 39.283944 ] } },
{ "type": "Feature", "properties": { "PARKID": "BOS01", "NAME": "South End Grounds I", "CITY": "Boston", "STATE": "MA", "START": "1871-05-16", "END": "1887-09-10", "LEAGUE": null, "NOTES": "BS1:1871-75; HR1: 8/12/1874; BSN:1876-1887", "AKA": "Walpole Street Grounds", "Exact": "Y", "Latitude": 42.336836, "Longitude": -71.087769, "Altitude": 11 }, "geometry": { "type": "Point", "coordinates": [ -71.087769, 42.336836 ] } },
{ "type": "Feature", "properties": { "PARKID": "BOS02", "NAME": "Dartmouth Grounds", "CITY": "Boston", "STATE": "MA", "START": "1884-04-30", "END": "1884-09-24", "LEAGUE": "UA", "NOTES": "BSU", "AKA": "Union Park", "Exact": "Y", "Latitude": 42.316513, "Longitude": -71.100641, "Altitude": 66 }, "geometry": { "type": "Point", "coordinates": [ -71.100641, 42.316513 ] } },
{ "type": "Feature", "properties": { "PARKID": "BOS03", "NAME": "South End Grounds II", "CITY": "Boston", "STATE": "MA", "START": "1888-05-25", "END": "1894-05-14", "LEAGUE": "NL", "NOTES": null, "AKA": "Grand Pavilion; Walpole Street Grounds; Union Baseball Grounds; Boston Baseball Grounds", "Exact": "Y", "Latitude": 42.336836, "Longitude": -71.087769, "Altitude": 11 }, "geometry": { "type": "Point", "coordinates": [ -71.087769, 42.336836 ] } },
{ "type": "Feature", "properties": { "PARKID": "BOS04", "NAME": "Congress Street Grounds", "CITY": "Boston", "STATE": "MA", "START": "1890-04-19", "END": "1894-06-20", "LEAGUE": null, "NOTES": "BSP:1890; BS2:1891; BSN:5/16 to 6/20/1894", "AKA": "Brotherhood Grounds", "Exact": "Y", "Latitude": 42.350129, "Longitude": -71.047297, "Altitude": 9 }, "geometry": { "type": "Point", "coordinates": [ -71.047297, 42.350129 ] } },
{ "type": "Feature", "properties": { "PARKID": "BOS05", "NAME": "South End Grounds III", "CITY": "Boston", "STATE": "MA", "START": "1894-07-20", "END": "1914-08-11", "LEAGUE": "NL", "NOTES": null, "AKA": "South Side Grounds", "Exact": "Y", "Latitude": 42.336859, "Longitude": -71.087692, "Altitude": 11 }, "geometry": { "type": "Point", "coordinates": [ -71.087692, 42.336859 ] } },
{ "type": "Feature", "properties": { "PARKID": "BOS06", "NAME": "Huntington Avenue Baseball Grounds", "CITY": "Boston", "STATE": "MA", "START": "1901-05-08", "END": "1911-10-07", "LEAGUE": "AL", "NOTES": null, "AKA": null, "Exact": "Y", "Latitude": 42.339199, "Longitude": -71.08913, "Altitude": 8 }, "geometry": { "type": "Point", "coordinates": [ -71.08913, 42.339199 ] } },
{ "type": "Feature", "properties": { "PARKID": "BOS07", "NAME": "Fenway Park", "CITY": "Boston", "STATE": "MA", "START": "1912-04-20", "END": null, "LEAGUE": "AL", "NOTES": "BOS:1912-date; BSN:9/7 to 9/29/1914; 4/14 to 7/26/15", "AKA": null, "Exact": "Y", "Latitude": 42.346561, "Longitude": -71.097337, "Altitude": 16 }, "geometry": { "type": "Point", "coordinates": [ -71.097337, 42.346561 ] } },
{ "type": "Feature", "properties": { "PARKID": "BOS08", "NAME": "Braves Field", "CITY": "Boston", "STATE": "MA", "START": "1915-08-18", "END": "1952-09-21", "LEAGUE": null, "NOTES": null, "AKA": "Bee Hive; National League Field", "Exact": "Y", "Latitude": 42.353233, "Longitude": -71.119465, "Altitude": 26 }, "geometry": { "type": "Point", "coordinates": [ -71.119465, 42.353233 ] } },
{ "type": "Feature", "properties": { "PARKID": "BUF01", "NAME": "Riverside Grounds", "CITY": "Buffalo", "STATE": "NY", "START": "1879-05-01", "END": "1883-09-08", "LEAGUE": "NL", "NOTES": null, "AKA": "Riverside Park", "Exact": "Y", "Latitude": 42.906379, "Longitude": -78.892599, "Altitude": 631 }, "geometry": { "type": "Point", "coordinates": [ -78.892599, 42.906379 ] } },
{ "type": "Feature", "properties": { "PARKID": "BUF02", "NAME": "Olympic Park I", "CITY": "Buffalo", "STATE": "NY", "START": "1884-05-21", "END": "1885-10-07", "LEAGUE": "NL", "NOTES": null, "AKA": "Richmond Ave Grounds", "Exact": "Y", "Latitude": 42.905634, "Longitude": -78.881282, "Altitude": 632 }, "geometry": { "type": "Point", "coordinates": [ -78.881282, 42.905634 ] } },
{ "type": "Feature", "properties": { "PARKID": "BUF03", "NAME": "Olympic Park II", "CITY": "Buffalo", "STATE": "NY", "START": "1890-04-19", "END": "1890-10-04", "LEAGUE": "PL", "NOTES": null, "AKA": "Buffalo Baseball Park", "Exact": "Y", "Latitude": 42.91453, "Longitude": -78.861669, "Altitude": 630 }, "geometry": { "type": "Point", "coordinates": [ -78.861669, 42.91453 ] } },
{ "type": "Feature", "properties": { "PARKID": "BUF04", "NAME": "International Fair Association Grounds", "CITY": "Buffalo", "STATE": "NY", "START": "1914-05-11", "END": "1915-09-08", "LEAGUE": "FL", "NOTES": null, "AKA": "Federal League Park", "Exact": "Y", "Latitude": 42.918747, "Longitude": -78.851486, "Altitude": 630 }, "geometry": { "type": "Point", "coordinates": [ -78.851486, 42.918747 ] } },
{ "type": "Feature", "properties": { "PARKID": "CAN01", "NAME": "Mahaffey Park", "CITY": "Canton", "STATE": "OH", "START": "1902-06-15", "END": "1903-06-21", "LEAGUE": null, "NOTES": "PIT 9/18/1890; CLE 6/15/02;5/10&6/21/03", "AKA": "League Park", "Exact": "Y", "Latitude": 40.815035, "Longitude": -81.412099, "Altitude": 1058 }, "geometry": { "type": "Point", "coordinates": [ -81.412099, 40.815035 ] } },
{ "type": "Feature", "properties": { "PARKID": "CAN02", "NAME": "Pastime Park", "CITY": "Canton", "STATE": "OH", "START": "1890-09-18", "END": "1890-09-18", "LEAGUE": "NL", "NOTES": "1 PIT game", "AKA": null, "Exact": "Y", "Latitude": 40.81132, "Longitude": -81.4234, "Altitude": 1058 }, "geometry": { "type": "Point", "coordinates": [ -81.4234, 40.81132 ] } },
{ "type": "Feature", "properties": { "PARKID": "CHI01", "NAME": "White Stocking Grounds", "CITY": "Chicago", "STATE": "IL", "START": "1871-05-08", "END": "1871-09-29", "LEAGUE": null, "NOTES": null, "AKA": "Lake Front Park; Union Base-Ball Grounds; Chicago Base-Ball Grounds; Lake Shore Park; Lake Street Dumping Ground; The Dump", "Exact": "Y", "Latitude": 41.883641, "Longitude": -87.623245, "Altitude": 585 }, "geometry": { "type": "Point", "coordinates": [ -87.623245, 41.883641 ] } },
{ "type": "Feature", "properties": { "PARKID": "CHI02", "NAME": "23rd Street Park", "CITY": "Chicago", "STATE": "IL", "START": "1872-05-29", "END": "1877-10-06", "LEAGUE": null, "NOTES": "CH2:1874-75; CHN:1876-77", "AKA": "State Street Grounds; 23rd Street Park; Base Ball Park", "Exact": "Y", "Latitude": 41.851747, "Longitude": -87.62906, "Altitude": 599 }, "geometry": { "type": "Point", "coordinates": [ -87.62906, 41.851747 ] } },
{ "type": "Feature", "properties": { "PARKID": "CHI03", "NAME": "White Stocking Park", "CITY": "Chicago", "STATE": "IL", "START": "1878-05-14", "END": "1884-10-11", "LEAGUE": "NL", "NOTES": null, "AKA": "Lake Front Park; Lake Park; Chicago Base-Ball Grounds", "Exact": "Y", "Latitude": 41.883641, "Longitude": -87.623245, "Altitude": 585 }, "geometry": { "type": "Point", "coordinates": [ -87.623245, 41.883641 ] } },
{ "type": "Feature", "properties": { "PARKID": "CHI05", "NAME": "South Side Park I", "CITY": "Chicago", "STATE": "IL", "START": "1884-05-02", "END": "1884-08-01", "LEAGUE": "UA", "NOTES": null, "AKA": "Cricket Club Grounds; Union Grounds; 39th Street Grounds", "Exact": "Y", "Latitude": 41.82297, "Longitude": -87.624017, "Altitude": 599 }, "geometry": { "type": "Point", "coordinates": [ -87.624017, 41.82297 ] } },
{ "type": "Feature", "properties": { "PARKID": "CHI06", "NAME": "West Side Park", "CITY": "Chicago", "STATE": "IL", "START": "1885-06-06", "END": "1891-10-02", "LEAGUE": "NL", "NOTES": "CHN:1891(M/W/F)", "AKA": "Congress Street Grounds; Loomis Race Track; Loomis Street Park", "Exact": "Y", "Latitude": 41.874902, "Longitude": -87.660903, "Altitude": 588 }, "geometry": { "type": "Point", "coordinates": [ -87.660903, 41.874902 ] } },
{ "type": "Feature", "properties": { "PARKID": "CHI07", "NAME": "South Side Park II", "CITY": "Chicago", "STATE": "IL", "START": "1890-05-05", "END": "1893-05-24", "LEAGUE": null, "NOTES": "CHP:1890;CHN:1891(Tu/Th/Sa);1892-93", "AKA": "Brotherhood Park; 35th Street Grounds", "Exact": "Y", "Latitude": 41.832116, "Longitude": -87.629939, "Altitude": 595 }, "geometry": { "type": "Point", "coordinates": [ -87.629939, 41.832116 ] } },
{ "type": "Feature", "properties": { "PARKID": "CHI08", "NAME": "West Side Grounds", "CITY": "Chicago", "STATE": "IL", "START": "1893-05-14", "END": "1915-10-03", "LEAGUE": "NL", "NOTES": "CHN:1893(Sun);1894-1915", "AKA": "West Side Park", "Exact": "Y", "Latitude": 41.870218, "Longitude": -87.67251, "Altitude": 593 }, "geometry": { "type": "Point", "coordinates": [ -87.67251, 41.870218 ] } },
{ "type": "Feature", "properties": { "PARKID": "CHI09", "NAME": "South Side Park III", "CITY": "Chicago", "STATE": "IL", "START": "1901-04-24", "END": "1910-06-27", "LEAGUE": "AL", "NOTES": null, "AKA": "White Sox Park; White Stocking Park; Cricket Club Grounds; 39th Street Grounds; Schorling's Park; American Giants Park", "Exact": "Y", "Latitude": 41.824857, "Longitude": -87.632664, "Altitude": 594 }, "geometry": { "type": "Point", "coordinates": [ -87.632664, 41.824857 ] } },
{ "type": "Feature", "properties": { "PARKID": "CHI10", "NAME": "Comiskey Park I", "CITY": "Chicago", "STATE": "IL", "START": "1910-07-01", "END": "1990-09-30", "LEAGUE": "AL", "NOTES": null, "AKA": "White Sox Park", "Exact": "Y", "Latitude": 41.83201, "Longitude": -87.634025, "Altitude": 594 }, "geometry": { "type": "Point", "coordinates": [ -87.634025, 41.83201 ] } },
{ "type": "Feature", "properties": { "PARKID": "CHI11", "NAME": "Wrigley Field", "CITY": "Chicago", "STATE": "IL", "START": "1914-04-23", "END": null, "LEAGUE": "NL", "NOTES": "CHF:1914-15; CHN:1916-date", "AKA": "Weeghman Park; Cubs Park; Whales Park; North Side Ball Park", "Exact": "Y", "Latitude": 41.948314, "Longitude": -87.655397, "Altitude": 599 }, "geometry": { "type": "Point", "coordinates": [ -87.655397, 41.948314 ] } },
{ "type": "Feature", "properties": { "PARKID": "CHI12", "NAME": "Guarantee Rate Park", "CITY": "Chicago", "STATE": "IL", "START": "1991-04-18", "END": null, "LEAGUE": "AL", "NOTES": null, "AKA": "Comiskey Park; US. Cellular Field", "Exact": "Y", "Latitude": 41.829892, "Longitude": -87.633703, "Altitude": 594 }, "geometry": { "type": "Point", "coordinates": [ -87.633703, 41.829892 ] } },
{ "type": "Feature", "properties": { "PARKID": "CIN01", "NAME": "Lincoln Park Grounds", "CITY": "Cincinnati", "STATE": "OH", "START": "1871-05-13", "END": "1871-07-22", "LEAGUE": null, "NOTES": "WS3:5/13&7/4/1871; CL1:7/22/1871", "AKA": "Union Cricket Club Grounds; Union Grounds", "Exact": "Y", "Latitude": 39.109827, "Longitude": -84.534652, "Altitude": 513 }, "geometry": { "type": "Point", "coordinates": [ -84.534652, 39.109827 ] } },
{ "type": "Feature", "properties": { "PARKID": "CIN02", "NAME": "Avenue Grounds", "CITY": "Cincinnati", "STATE": "OH", "START": "1876-04-25", "END": "1879-08-27", "LEAGUE": "NL", "NOTES": "first Ladies Day (1876)", "AKA": null, "Exact": "Y", "Latitude": 39.142878, "Longitude": -84.54647, "Altitude": 480 }, "geometry": { "type": "Point", "coordinates": [ -84.54647, 39.142878 ] } },
{ "type": "Feature", "properties": { "PARKID": "CIN03", "NAME": "Bank Street Grounds", "CITY": "Cincinnati", "STATE": "OH", "START": "1880-05-01", "END": "1884-10-15", "LEAGUE": null, "NOTES": "CN1:1880; CN2:1882-83; CNU:1884", "AKA": "Union Athletic Park", "Exact": "Y", "Latitude": 39.121126, "Longitude": -84.536923, "Altitude": 496 }, "geometry": { "type": "Point", "coordinates": [ -84.536923, 39.121126 ] } },
{ "type": "Feature", "properties": { "PARKID": "CIN04", "NAME": "League Park I", "CITY": "Cincinnati", "STATE": "OH", "START": "1884-05-01", "END": "1893-09-29", "LEAGUE": null, "NOTES": "CN2:1884-89; CIN:1890-93", "AKA": "Cincinnati Base Ball Grounds ; Western Avenue Grounds", "Exact": "Y", "Latitude": 39.116854, "Longitude": -84.535505, "Altitude": 488 }, "geometry": { "type": "Point", "coordinates": [ -84.535505, 39.116854 ] } },
{ "type": "Feature", "properties": { "PARKID": "CIN05", "NAME": "League Park II", "CITY": "Cincinnati", "STATE": "OH", "START": "1894-04-20", "END": "1901-10-06", "LEAGUE": "NL", "NOTES": null, "AKA": null, "Exact": "Y", "Latitude": 39.116804, "Longitude": -84.53587, "Altitude": 489 }, "geometry": { "type": "Point", "coordinates": [ -84.53587, 39.116804 ] } },
{ "type": "Feature", "properties": { "PARKID": "CIN06", "NAME": "Palace of the Fans", "CITY": "Cincinnati", "STATE": "OH", "START": "1902-04-17", "END": "1911-10-12", "LEAGUE": "NL", "NOTES": null, "AKA": "League Park", "Exact": "Y", "Latitude": 39.116804, "Longitude": -84.53587, "Altitude": 489 }, "geometry": { "type": "Point", "coordinates": [ -84.53587, 39.116804 ] } },
{ "type": "Feature", "properties": { "PARKID": "CIN07", "NAME": "Crosley Field", "CITY": "Cincinnati", "STATE": "OH", "START": "1912-04-11", "END": "1970-06-24", "LEAGUE": "NL", "NOTES": null, "AKA": "Redland Field", "Exact": "Y", "Latitude": 39.116854, "Longitude": -84.535505, "Altitude": 488 }, "geometry": { "type": "Point", "coordinates": [ -84.535505, 39.116854 ] } },
{ "type": "Feature", "properties": { "PARKID": "CIN08", "NAME": "Riverfront Stadium", "CITY": "Cincinnati", "STATE": "OH", "START": "1970-06-30", "END": "2002-09-22", "LEAGUE": "NL", "NOTES": null, "AKA": "Cinergy Field", "Exact": "Y", "Latitude": 39.096548, "Longitude": -84.509756, "Altitude": 489 }, "geometry": { "type": "Point", "coordinates": [ -84.509756, 39.096548 ] } },
{ "type": "Feature", "properties": { "PARKID": "CIN09", "NAME": "Great American Ballpark", "CITY": "Cincinnati", "STATE": "OH", "START": "2003-03-31", "END": null, "LEAGUE": "NL", "NOTES": null, "AKA": null, "Exact": "Y", "Latitude": 39.097213, "Longitude": -84.506483, "Altitude": 489 }, "geometry": { "type": "Point", "coordinates": [ -84.506483, 39.097213 ] } },
{ "type": "Feature", "properties": { "PARKID": "CLE01", "NAME": "National Association Grounds", "CITY": "Cleveland", "STATE": "OH", "START": "1871-05-11", "END": "1872-08-19", "LEAGUE": null, "NOTES": null, "AKA": null, "Exact": "Y", "Latitude": 41.484704, "Longitude": -81.649883, "Altitude": 674 }, "geometry": { "type": "Point", "coordinates": [ -81.649883, 41.484704 ] } },
{ "type": "Feature", "properties": { "PARKID": "CLE02", "NAME": "National League Park I", "CITY": "Cleveland", "STATE": "OH", "START": "1879-05-01", "END": "1884-10-11", "LEAGUE": "NL", "NOTES": null, "AKA": "Kennard Street Park; League Park", "Exact": "Y", "Latitude": 41.500804, "Longitude": -81.654278, "Altitude": 667 }, "geometry": { "type": "Point", "coordinates": [ -81.654278, 41.500804 ] } },
{ "type": "Feature", "properties": { "PARKID": "CLE03", "NAME": "National League Park II", "CITY": "Cleveland", "STATE": "OH", "START": "1887-05-04", "END": "1890-10-04", "LEAGUE": null, "NOTES": "CL3:1887-88; CL4:1889-90", "AKA": "American Association Park; Brookside Park; League Park", "Exact": "Y", "Latitude": 41.503823, "Longitude": -81.661583, "Altitude": 660 }, "geometry": { "type": "Point", "coordinates": [ -81.661583, 41.503823 ] } },
{ "type": "Feature", "properties": { "PARKID": "CLE04", "NAME": "Brotherhood Park", "CITY": "Cleveland", "STATE": "OH", "START": "1890-04-30", "END": "1890-10-04", "LEAGUE": "PL", "NOTES": null, "AKA": "Players League Park", "Exact": "Y", "Latitude": 41.483916, "Longitude": -81.648909, "Altitude": 651 }, "geometry": { "type": "Point", "coordinates": [ -81.648909, 41.483916 ] } },
{ "type": "Feature", "properties": { "PARKID": "CLE05", "NAME": "League Park III", "CITY": "Cleveland", "STATE": "OH", "START": "1891-05-01", "END": "1909-09-06", "LEAGUE": null, "NOTES": "CL4:1891-99; CLE:1901-09", "AKA": "National League Park", "Exact": "Y", "Latitude": 41.511852, "Longitude": -81.643766, "Altitude": 644 }, "geometry": { "type": "Point", "coordinates": [ -81.643766, 41.511852 ] } },
{ "type": "Feature", "properties": { "PARKID": "CLE06", "NAME": "League Park IV", "CITY": "Cleveland", "STATE": "OH", "START": "1910-04-21", "END": "1946-09-21", "LEAGUE": "AL", "NOTES": "CLE:1910-7/30/1932;1934-46", "AKA": "Dunn Field; Somers Park", "Exact": "Y", "Latitude": 41.511852, "Longitude": -81.643766, "Altitude": 644 }, "geometry": { "type": "Point", "coordinates": [ -81.643766, 41.511852 ] } },
{ "type": "Feature", "properties": { "PARKID": "CLE07", "NAME": "Cleveland Stadium", "CITY": "Cleveland", "STATE": "OH", "START": "1932-07-31", "END": "1993-10-03", "LEAGUE": "AL", "NOTES": "CLE:7/31/1932-9/24/1933; 1947-1993", "AKA": "Municipal Stadium; Lake Front Stadium", "Exact": "Y", "Latitude": 41.506091, "Longitude": -81.699404, "Altitude": 593 }, "geometry": { "type": "Point", "coordinates": [ -81.699404, 41.506091 ] } },
{ "type": "Feature", "properties": { "PARKID": "CLE08", "NAME": "Progressive Field", "CITY": "Cleveland", "STATE": "OH", "START": "1994-04-04", "END": null, "LEAGUE": "AL", "NOTES": null, "AKA": "Jacobs Field; The Jake", "Exact": "Y", "Latitude": 41.496005, "Longitude": -81.685326, "Altitude": 673 }, "geometry": { "type": "Point", "coordinates": [ -81.685326, 41.496005 ] } },
{ "type": "Feature", "properties": { "PARKID": "CLE09", "NAME": "Cedar Avenue Driving Park", "CITY": "Cleveland", "STATE": "OH", "START": "1887-08-21", "END": "1887-08-21", "LEAGUE": "AA", "NOTES": "CL3: 1 game", "AKA": null, "Exact": "Y", "Latitude": 41.500586, "Longitude": -81.632946, "Altitude": 673 }, "geometry": { "type": "Point", "coordinates": [ -81.632946, 41.500586 ] } },
{ "type": "Feature", "properties": { "PARKID": "CLL01", "NAME": "Euclid Beach Park", "CITY": "Collinwood", "STATE": "OH", "START": "1898-06-12", "END": "1898-06-19", "LEAGUE": "NL", "NOTES": "CL4:6/12&6/19/1898", "AKA": null, "Exact": "Y", "Latitude": 41.577927, "Longitude": -81.565971, "Altitude": 604 }, "geometry": { "type": "Point", "coordinates": [ -81.565971, 41.577927 ] } },
{ "type": "Feature", "properties": { "PARKID": "COL01", "NAME": "Recreation Park I", "CITY": "Columbus", "STATE": "OH", "START": "1883-05-01", "END": "1884-09-22", "LEAGUE": "AA", "NOTES": null, "AKA": null, "Exact": "Y", "Latitude": 39.957374, "Longitude": -82.980276, "Altitude": 788 }, "geometry": { "type": "Point", "coordinates": [ -82.980276, 39.957374 ] } },
{ "type": "Feature", "properties": { "PARKID": "COL02", "NAME": "Recreation Park II", "CITY": "Columbus", "STATE": "OH", "START": "1889-04-28", "END": "1891-09-22", "LEAGUE": "AA", "NOTES": null, "AKA": null, "Exact": "Y", "Latitude": 39.945109, "Longitude": -82.98933, "Altitude": 758 }, "geometry": { "type": "Point", "coordinates": [ -82.98933, 39.945109 ] } },
{ "type": "Feature", "properties": { "PARKID": "COL03", "NAME": "Neil Park I", "CITY": "Columbus", "STATE": "OH", "START": "1902-08-03", "END": "1903-05-17", "LEAGUE": "AL", "NOTES": "CLE:2 games", "AKA": null, "Exact": "Y", "Latitude": 39.972455, "Longitude": -82.990297, "Altitude": 783 }, "geometry": { "type": "Point", "coordinates": [ -82.990297, 39.972455 ] } },
{ "type": "Feature", "properties": { "PARKID": "COL04", "NAME": "Neil Park II", "CITY": "Columbus", "STATE": "OH", "START": "1905-07-23", "END": "1905-07-24", "LEAGUE": "AL", "NOTES": "DET:2 games", "AKA": null, "Exact": "Y", "Latitude": 39.972455, "Longitude": -82.990297, "Altitude": 783 }, "geometry": { "type": "Point", "coordinates": [ -82.990297, 39.972455 ] } },
{ "type": "Feature", "properties": { "PARKID": "COV01", "NAME": "Star Baseball Park", "CITY": "Covington", "STATE": "KY", "START": "1875-09-21", "END": "1875-09-21", "LEAGUE": null, "NOTES": "PH2", "AKA": "Covington Base Ball Park; Star Grounds; Star Skating Rink and Base Ball Grounds", "Exact": "Y", "Latitude": 39.07032, "Longitude": -84.506412, "Altitude": 509 }, "geometry": { "type": "Point", "coordinates": [ -84.506412, 39.07032 ] } },
{ "type": "Feature", "properties": { "PARKID": "DAY01", "NAME": "Fairview Park", "CITY": "Dayton", "STATE": "OH", "START": "1902-06-08", "END": "1902-06-08", "LEAGUE": "AL", "NOTES": "CLE", "AKA": null, "Exact": "Y", "Latitude": 39.786302, "Longitude": -84.213033, "Altitude": 824 }, "geometry": { "type": "Point", "coordinates": [ -84.213033, 39.786302 ] } },
{ "type": "Feature", "properties": { "PARKID": "DEN01", "NAME": "Mile High Stadium", "CITY": "Denver", "STATE": "CO", "START": "1993-04-09", "END": "1994-08-11", "LEAGUE": "NL", "NOTES": null, "AKA": null, "Exact": "Y", "Latitude": 39.746293, "Longitude": -105.021939, "Altitude": 5211 }, "geometry": { "type": "Point", "coordinates": [ -105.021939, 39.746293 ] } },
{ "type": "Feature", "properties": { "PARKID": "DEN02", "NAME": "Coors Field", "CITY": "Denver", "STATE": "CO", "START": "1995-04-26", "END": null, "LEAGUE": "NL", "NOTES": null, "AKA": null, "Exact": "Y", "Latitude": 39.756175, "Longitude": -104.99413, "Altitude": 5197 }, "geometry": { "type": "Point", "coordinates": [ -104.99413, 39.756175 ] } },
{ "type": "Feature", "properties": { "PARKID": "DET01", "NAME": "Recreation Park", "CITY": "Detroit", "STATE": "MI", "START": "1881-05-02", "END": "1890-09-23", "LEAGUE": "NL", "NOTES": null, "AKA": null, "Exact": "Y", "Latitude": 42.353487, "Longitude": -83.0564, "Altitude": 625 }, "geometry": { "type": "Point", "coordinates": [ -83.0564, 42.353487 ] } },
{ "type": "Feature", "properties": { "PARKID": "DET02", "NAME": "Bennett Park", "CITY": "Detroit", "STATE": "MI", "START": "1901-04-25", "END": "1911-09-10", "LEAGUE": "AL", "NOTES": null, "AKA": "Woodbridge Grove; The Haymarket", "Exact": "Y", "Latitude": 42.332541, "Longitude": -83.068732, "Altitude": 601 }, "geometry": { "type": "Point", "coordinates": [ -83.068732, 42.332541 ] } },
{ "type": "Feature", "properties": { "PARKID": "DET03", "NAME": "Burns Park", "CITY": "Detroit", "STATE": "MI", "START": "1901-04-28", "END": "1902-09-07", "LEAGUE": "AL", "NOTES": "Sundays only", "AKA": "West End Park", "Exact": "Y", "Latitude": 42.318309, "Longitude": -83.127755, "Altitude": 590 }, "geometry": { "type": "Point", "coordinates": [ -83.127755, 42.318309 ] } },
{ "type": "Feature", "properties": { "PARKID": "DET04", "NAME": "Tiger Stadium", "CITY": "Detroit", "STATE": "MI", "START": "1912-04-20", "END": "1999-09-27", "LEAGUE": "AL", "NOTES": null, "AKA": "Navin Field; Briggs Stadium", "Exact": "Y", "Latitude": 42.332541, "Longitude": -83.068732, "Altitude": 601 }, "geometry": { "type": "Point", "coordinates": [ -83.068732, 42.332541 ] } },
{ "type": "Feature", "properties": { "PARKID": "DET05", "NAME": "Comerica Park", "CITY": "Detroit", "STATE": "MI", "START": "2000-04-11", "END": null, "LEAGUE": "AL", "NOTES": null, "AKA": null, "Exact": "Y", "Latitude": 42.339063, "Longitude": -83.048627, "Altitude": 602 }, "geometry": { "type": "Point", "coordinates": [ -83.048627, 42.339063 ] } },
{ "type": "Feature", "properties": { "PARKID": "DOV01", "NAME": "Fairview Park Fair Grounds", "CITY": "Dover", "STATE": "DE", "START": "1875-06-24", "END": "1875-06-24", "LEAGUE": null, "NOTES": "PH1", "AKA": "Dover Grounds", "Exact": "Y", "Latitude": 39.167903, "Longitude": -75.536243, "Altitude": 40 }, "geometry": { "type": "Point", "coordinates": [ -75.536243, 39.167903 ] } },
{ "type": "Feature", "properties": { "PARKID": "ELM01", "NAME": "Maple Avenue Driving Park", "CITY": "Elmira", "STATE": "NY", "START": "1885-10-10", "END": "1885-10-10", "LEAGUE": "NL", "NOTES": "BFN", "AKA": "Elmira Grounds", "Exact": "Y", "Latitude": 42.081115, "Longitude": -76.781308, "Altitude": 852 }, "geometry": { "type": "Point", "coordinates": [ -76.781308, 42.081115 ] } },
{ "type": "Feature", "properties": { "PARKID": "FOR01", "NAME": "Grand Duchess", "CITY": "Fort Wayne", "STATE": "IN", "START": "1871-05-04", "END": "1871-08-29", "LEAGUE": null, "NOTES": "First ML game", "AKA": "Kekionga Base Ball Grounds", "Exact": "Y", "Latitude": 41.079087, "Longitude": -85.15545, "Altitude": 759 }, "geometry": { "type": "Point", "coordinates": [ -85.15545, 41.079087 ] } },
{ "type": "Feature", "properties": { "PARKID": "FOR03", "NAME": "Jailhouse Flats", "CITY": "Fort Wayne", "STATE": "IN", "START": "1902-06-22", "END": "1902-08-31", "LEAGUE": "AL", "NOTES": "CLE:2 games", "AKA": "Swinney Park; Jail Flats", "Exact": "Y", "Latitude": 41.084198, "Longitude": -85.139431, "Altitude": 756 }, "geometry": { "type": "Point", "coordinates": [ -85.139431, 41.084198 ] } },
{ "type": "Feature", "properties": { "PARKID": "FTB01", "NAME": "Fort Bragg Field", "CITY": "Fort Bragg", "STATE": "NC", "START": "2016-04-03", "END": "2016-07-03", "LEAGUE": "NL", "NOTES": "ATL", "AKA": null, "Exact": "Y", "Latitude": 35.163068, "Longitude": -79.001193, "Altitude": 324 }, "geometry": { "type": "Point", "coordinates": [ -79.001193, 35.163068 ] } },
{ "type": "Feature", "properties": { "PARKID": "GEA01", "NAME": "Geauga Lake Grounds", "CITY": "Geauga Lake", "STATE": "OH", "START": "1888-07-22", "END": "1888-08-26", "LEAGUE": "AA", "NOTES": "CL3:7/22&7/29&8/26", "AKA": null, "Exact": "Y", "Latitude": 41.34955, "Longitude": -81.368067, "Altitude": 1030 }, "geometry": { "type": "Point", "coordinates": [ -81.368067, 41.34955 ] } },
{ "type": "Feature", "properties": { "PARKID": "GLO01", "NAME": "Gloucester Point Grounds", "CITY": "Gloucester City", "STATE": "NJ", "START": "1888-10-14", "END": "1890-10-12", "LEAGUE": "AA", "NOTES": "Sundays; PH4 6/10/1888", "AKA": null, "Exact": "Y", "Latitude": 39.889851, "Longitude": -75.126027, "Altitude": 19 }, "geometry": { "type": "Point", "coordinates": [ -75.126027, 39.889851 ] } },
{ "type": "Feature", "properties": { "PARKID": "GLO02", "NAME": "Fireworks Park", "CITY": "Gloucester City", "STATE": "NJ", "START": "1888-08-05", "END": "1888-08-26", "LEAGUE": "AA", "NOTES": "Sundays", "AKA": null, "Exact": "N", "Latitude": 39.886988, "Longitude": -75.129051, "Altitude": 19 }, "geometry": { "type": "Point", "coordinates": [ -75.129051, 39.886988 ] } },
{ "type": "Feature", "properties": { "PARKID": "GRA01", "NAME": "Ramona Park", "CITY": "Grand Rapids", "STATE": "MI", "START": "1903-05-24", "END": "1903-05-24", "LEAGUE": "AL", "NOTES": "DET", "AKA": "Ramona Athletic Park", "Exact": "Y", "Latitude": 42.951512, "Longitude": -85.613776, "Altitude": 751 }, "geometry": { "type": "Point", "coordinates": [ -85.613776, 42.951512 ] } },
{ "type": "Feature", "properties": { "PARKID": "HAR01", "NAME": "Harrison Field", "CITY": "Harrison", "STATE": "NJ", "START": "1915-04-16", "END": "1915-10-03", "LEAGUE": "FL", "NOTES": "NEW", "AKA": "Federal League Park; Harrison Park; Peppers Park", "Exact": "Y", "Latitude": 40.739723, "Longitude": -74.158838, "Altitude": 9 }, "geometry": { "type": "Point", "coordinates": [ -74.158838, 40.739723 ] } },
{ "type": "Feature", "properties": { "PARKID": "HON01", "NAME": "Aloha Stadium", "CITY": "Honolulu", "STATE": "HI", "START": "1997-04-19", "END": "1997-04-20", "LEAGUE": "NL", "NOTES": "SDN:4/19&4/19&4/20/1997", "AKA": null, "Exact": "Y", "Latitude": 21.372695, "Longitude": -157.929927, "Altitude": 34 }, "geometry": { "type": "Point", "coordinates": [ -157.929927, 21.372695 ] } },
{ "type": "Feature", "properties": { "PARKID": "HOU01", "NAME": "Colt Stadium", "CITY": "Houston", "STATE": "TX", "START": "1962-04-10", "END": "1964-09-27", "LEAGUE": "NL", "NOTES": null, "AKA": null, "Exact": "Y", "Latitude": 29.6889, "Longitude": -95.4089, "Altitude": 55 }, "geometry": { "type": "Point", "coordinates": [ -95.4089, 29.6889 ] } },
{ "type": "Feature", "properties": { "PARKID": "HOU02", "NAME": "Astrodome", "CITY": "Houston", "STATE": "TX", "START": "1965-04-12", "END": "1999-10-03", "LEAGUE": "NL", "NOTES": null, "AKA": "Harris County Domed Stadium", "Exact": "Y", "Latitude": 29.684812, "Longitude": -95.407775, "Altitude": 52 }, "geometry": { "type": "Point", "coordinates": [ -95.407775, 29.684812 ] } },
{ "type": "Feature", "properties": { "PARKID": "HOU03", "NAME": "Minute Maid Park", "CITY": "Houston", "STATE": "TX", "START": "2000-04-07", "END": null, "LEAGUE": "NL", "NOTES": null, "AKA": "Enron Field; Astros Field", "Exact": "Y", "Latitude": 29.757041, "Longitude": -95.355429, "Altitude": 20 }, "geometry": { "type": "Point", "coordinates": [ -95.355429, 29.757041 ] } },
{ "type": "Feature", "properties": { "PARKID": "HRT01", "NAME": "Hartford Ball Club Grounds", "CITY": "Hartford", "STATE": "CT", "START": "1874-05-01", "END": "1876-09-16", "LEAGUE": null, "NOTES": "HR1:1874-75; HAR:1876", "AKA": null, "Exact": "Y", "Latitude": 41.758038, "Longitude": -72.671043, "Altitude": 30 }, "geometry": { "type": "Point", "coordinates": [ -72.671043, 41.758038 ] } },
{ "type": "Feature", "properties": { "PARKID": "HRT02", "NAME": "Hartford Trotting Park", "CITY": "Hartford", "STATE": "CT", "START": "1872-06-21", "END": "1872-08-09", "LEAGUE": null, "NOTES": "MID: 6/21; 7/3; 8/9", "AKA": null, "Exact": "Y", "Latitude": 41.782489, "Longitude": -72.698579, "Altitude": 59 }, "geometry": { "type": "Point", "coordinates": [ -72.698579, 41.782489 ] } },
{ "type": "Feature", "properties": { "PARKID": "IND01", "NAME": "South Street Park", "CITY": "Indianapolis", "STATE": "IN", "START": "1878-05-01", "END": "1878-09-13", "LEAGUE": "NL", "NOTES": null, "AKA": "National League Park ; Athletic Park", "Exact": "Y", "Latitude": 39.762023, "Longitude": -86.153725, "Altitude": 714 }, "geometry": { "type": "Point", "coordinates": [ -86.153725, 39.762023 ] } },
{ "type": "Feature", "properties": { "PARKID": "IND02", "NAME": "Seventh Street Park I", "CITY": "Indianapolis", "STATE": "IN", "START": "1884-05-14", "END": "1885-09-15", "LEAGUE": "AA", "NOTES": null, "AKA": "Athletic Park", "Exact": "Y", "Latitude": 39.789401, "Longitude": -86.162256, "Altitude": 715 }, "geometry": { "type": "Point", "coordinates": [ -86.162256, 39.789401 ] } },
{ "type": "Feature", "properties": { "PARKID": "IND03", "NAME": "Bruce Grounds", "CITY": "Indianapolis", "STATE": "IN", "START": "1884-05-18", "END": "1884-09-21", "LEAGUE": "AA", "NOTES": "Sundays", "AKA": "Fourth Street Grounds", "Exact": "Y", "Latitude": 39.797513, "Longitude": -86.143287, "Altitude": 725 }, "geometry": { "type": "Point", "coordinates": [ -86.143287, 39.797513 ] } },
{ "type": "Feature", "properties": { "PARKID": "IND04", "NAME": "Seventh Street Park II", "CITY": "Indianapolis", "STATE": "IN", "START": "1887-04-28", "END": "1887-10-08", "LEAGUE": "NL", "NOTES": null, "AKA": "Athletic Park", "Exact": "Y", "Latitude": 39.789401, "Longitude": -86.162256, "Altitude": 715 }, "geometry": { "type": "Point", "coordinates": [ -86.162256, 39.789401 ] } },
{ "type": "Feature", "properties": { "PARKID": "IND05", "NAME": "Seventh Street Park III", "CITY": "Indianapolis", "STATE": "IN", "START": "1888-04-20", "END": "1889-10-05", "LEAGUE": "NL", "NOTES": null, "AKA": "Athletic Park", "Exact": "Y", "Latitude": 39.789401, "Longitude": -86.162256, "Altitude": 715 }, "geometry": { "type": "Point", "coordinates": [ -86.162256, 39.789401 ] } },
{ "type": "Feature", "properties": { "PARKID": "IND06", "NAME": "Indianapolis Park", "CITY": "Indianapolis", "STATE": "IN", "START": "1890-07-28", "END": "1890-08-02", "LEAGUE": "NL", "NOTES": "CL4", "AKA": null, "Exact": "Y", "Latitude": 39.770404, "Longitude": -86.134361, "Altitude": 742 }, "geometry": { "type": "Point", "coordinates": [ -86.134361, 39.770404 ] } },
{ "type": "Feature", "properties": { "PARKID": "IND07", "NAME": "Federal League Park", "CITY": "Indianapolis", "STATE": "IN", "START": "1914-04-23", "END": "1914-10-08", "LEAGUE": "FL", "NOTES": null, "AKA": "Greenlawn Park", "Exact": "Y", "Latitude": 39.759953, "Longitude": -86.171599, "Altitude": 697 }, "geometry": { "type": "Point", "coordinates": [ -86.171599, 39.759953 ] } },
{ "type": "Feature", "properties": { "PARKID": "IRO01", "NAME": "Windsor Beach Grounds", "CITY": "Irondequoit", "STATE": "NY", "START": "1890-05-11", "END": "1890-07-20", "LEAGUE": "AA", "NOTES": "RC2: Sundays", "AKA": null, "Exact": "Y", "Latitude": 43.249113, "Longitude": -77.591588, "Altitude": 277 }, "geometry": { "type": "Point", "coordinates": [ -77.591588, 43.249113 ] } },
{ "type": "Feature", "properties": { "PARKID": "JER01", "NAME": "Oakland Park", "CITY": "Jersey City", "STATE": "NJ", "START": "1889-04-24", "END": "1889-04-25", "LEAGUE": "NL", "NOTES": "NY1: 2 games", "AKA": "Oakland Athletic Association Field", "Exact": "Y", "Latitude": 40.733589, "Longitude": -74.053949, "Altitude": 94 }, "geometry": { "type": "Point", "coordinates": [ -74.053949, 40.733589 ] } },
{ "type": "Feature", "properties": { "PARKID": "JER02", "NAME": "Roosevelt Stadium", "CITY": "Jersey City", "STATE": "NJ", "START": "1956-04-19", "END": "1957-09-03", "LEAGUE": "NL", "NOTES": "BRO: 7 gms (1956) & 8 gms (1957)", "AKA": null, "Exact": "Y", "Latitude": 40.706251, "Longitude": -74.103881, "Altitude": 10 }, "geometry": { "type": "Point", "coordinates": [ -74.103881, 40.706251 ] } },
{ "type": "Feature", "properties": { "PARKID": "KAN01", "NAME": "Athletic Park", "CITY": "Kansas City", "STATE": "MO", "START": "1884-06-07", "END": "1884-10-19", "LEAGUE": "UA", "NOTES": null, "AKA": null, "Exact": "Y", "Latitude": 39.084749, "Longitude": -94.593843, "Altitude": 777 }, "geometry": { "type": "Point", "coordinates": [ -94.593843, 39.084749 ] } },
{ "type": "Feature", "properties": { "PARKID": "KAN02", "NAME": "Association Park", "CITY": "Kansas City", "STATE": "MO", "START": "1886-04-30", "END": "1888-09-29", "LEAGUE": null, "NOTES": "KCN:1886; KC2:1888; SLN 1892 (3 games)", "AKA": "The Hole; League Park", "Exact": "Y", "Latitude": 39.108146, "Longitude": -94.564027, "Altitude": 907 }, "geometry": { "type": "Point", "coordinates": [ -94.564027, 39.108146 ] } },
{ "type": "Feature", "properties": { "PARKID": "KAN03", "NAME": "Exposition Park", "CITY": "Kansas City", "STATE": "MO", "START": "1888-09-30", "END": "1892-10-15", "LEAGUE": "AA", "NOTES": null, "AKA": null, "Exact": "Y", "Latitude": 39.088707, "Longitude": -94.551176, "Altitude": 890 }, "geometry": { "type": "Point", "coordinates": [ -94.551176, 39.088707 ] } },
{ "type": "Feature", "properties": { "PARKID": "KAN04", "NAME": "Gordon and Koppel Field", "CITY": "Kansas City", "STATE": "MO", "START": "1914-04-16", "END": "1915-09-28", "LEAGUE": "FL", "NOTES": null, "AKA": "Federal League Park", "Exact": "Y", "Latitude": 39.040575, "Longitude": -94.569587, "Altitude": 805 }, "geometry": { "type": "Point", "coordinates": [ -94.569587, 39.040575 ] } },
{ "type": "Feature", "properties": { "PARKID": "KAN05", "NAME": "Municipal Stadium", "CITY": "Kansas City", "STATE": "MO", "START": "1955-04-12", "END": "1972-10-04", "LEAGUE": "AL", "NOTES": "KC1:1955-67; KCA:1969-1972", "AKA": null, "Exact": "Y", "Latitude": 39.086109, "Longitude": -94.557535, "Altitude": 916 }, "geometry": { "type": "Point", "coordinates": [ -94.557535, 39.086109 ] } },
{ "type": "Feature", "properties": { "PARKID": "KAN06", "NAME": "Kauffman Stadium", "CITY": "Kansas City", "STATE": "MO", "START": "1973-04-10", "END": null, "LEAGUE": "AL", "NOTES": null, "AKA": "Royals Stadium", "Exact": "Y", "Latitude": 39.051604, "Longitude": -94.480149, "Altitude": 886 }, "geometry": { "type": "Point", "coordinates": [ -94.480149, 39.051604 ] } },
{ "type": "Feature", "properties": { "PARKID": "KEO01", "NAME": "Perry Park", "CITY": "Keokuk", "STATE": "IA", "START": "1875-05-04", "END": "1875-06-14", "LEAGUE": null, "NOTES": null, "AKA": "Walte's Pasture", "Exact": "Y", "Latitude": 40.413397, "Longitude": -91.388595, "Altitude": 641 }, "geometry": { "type": "Point", "coordinates": [ -91.388595, 40.413397 ] } },
{ "type": "Feature", "properties": { "PARKID": "LAS01", "NAME": "Cashman Field", "CITY": "Las Vegas", "STATE": "NV", "START": "1996-04-01", "END": "1996-04-07", "LEAGUE": "AL", "NOTES": "OAK: 6 games", "AKA": null, "Exact": "Y", "Latitude": 36.179914, "Longitude": -115.129708, "Altitude": 1907 }, "geometry": { "type": "Point", "coordinates": [ -115.129708, 36.179914 ] } },
{ "type": "Feature", "properties": { "PARKID": "LBV01", "NAME": "Champion Stadium", "CITY": "Lake Buena Vista", "STATE": "FL", "START": "2007-05-15", "END": "2008-04-24", "LEAGUE": "AL", "NOTES": "TBA 3 games in 2007", "AKA": "The Ballpark at Disney's Wide World; Disney Field; Cracker Jack Stadium", "Exact": "Y", "Latitude": 28.336796, "Longitude": -81.555908, "Altitude": 98 }, "geometry": { "type": "Point", "coordinates": [ -81.555908, 28.336796 ] } },
{ "type": "Feature", "properties": { "PARKID": "LON01", "NAME": "Olympic Stadium", "CITY": "London", "STATE": "EN", "START": "2019-06-29", "END": null, "LEAGUE": "AL", "NOTES": null, "AKA": null, "Exact": "Y", "Latitude": 51.5365, "Longitude": -0.0098, "Altitude": 206 }, "geometry": { "type": "Point", "coordinates": [ -0.0098, 51.5365 ] } },
{ "type": "Feature", "properties": { "PARKID": "LOS01", "NAME": "Los Angeles Memorial Coliseum", "CITY": "Los Angeles", "STATE": "CA", "START": "1958-04-18", "END": "1961-09-20", "LEAGUE": "NL", "NOTES": null, "AKA": "Los Angeles Colisuem; Memorial Coliseum", "Exact": "Y", "Latitude": 34.014019, "Longitude": -118.288009, "Altitude": 139 }, "geometry": { "type": "Point", "coordinates": [ -118.288009, 34.014019 ] } },
{ "type": "Feature", "properties": { "PARKID": "LOS02", "NAME": "Wrigley Field", "CITY": "Los Angeles", "STATE": "CA", "START": "1961-04-27", "END": "1961-10-01", "LEAGUE": "AL", "NOTES": null, "AKA": null, "Exact": "Y", "Latitude": 34.007316, "Longitude": -118.266236, "Altitude": 188 }, "geometry": { "type": "Point", "coordinates": [ -118.266236, 34.007316 ] } },
{ "type": "Feature", "properties": { "PARKID": "LOS03", "NAME": "Dodger Stadium", "CITY": "Los Angeles", "STATE": "CA", "START": "1962-04-10", "END": null, "LEAGUE": "NL", "NOTES": "LAN:1962-prsnt; LAA:1962-9/2/65; CAL:9/2to9/22/65", "AKA": "Chavez Ravine", "Exact": "Y", "Latitude": 34.073878, "Longitude": -118.239951, "Altitude": 501 }, "geometry": { "type": "Point", "coordinates": [ -118.239951, 34.073878 ] } },
{ "type": "Feature", "properties": { "PARKID": "LOU01", "NAME": "Louisville Baseball Park", "CITY": "Louisville", "STATE": "KY", "START": "1876-04-25", "END": "1877-09-29", "LEAGUE": "NL", "NOTES": null, "AKA": "St. James Court", "Exact": "Y", "Latitude": 38.227403, "Longitude": -85.763533, "Altitude": 461 }, "geometry": { "type": "Point", "coordinates": [ -85.763533, 38.227403 ] } },
{ "type": "Feature", "properties": { "PARKID": "LOU02", "NAME": "Eclipse Park I", "CITY": "Louisville", "STATE": "KY", "START": "1882-05-05", "END": "1893-05-04", "LEAGUE": null, "NOTES": "LS2:1882-91; LS3:1892-93", "AKA": null, "Exact": "Y", "Latitude": 38.251633, "Longitude": -85.79887, "Altitude": 452 }, "geometry": { "type": "Point", "coordinates": [ -85.79887, 38.251633 ] } },
{ "type": "Feature", "properties": { "PARKID": "LOU03", "NAME": "Eclipse Park II", "CITY": "Louisville", "STATE": "KY", "START": "1893-05-22", "END": "1899-08-02", "LEAGUE": "NL", "NOTES": null, "AKA": "League Park", "Exact": "Y", "Latitude": 38.247254, "Longitude": -85.799672, "Altitude": 452 }, "geometry": { "type": "Point", "coordinates": [ -85.799672, 38.247254 ] } },
{ "type": "Feature", "properties": { "PARKID": "LOU04", "NAME": "Eclipse Park III", "CITY": "Louisville", "STATE": "KY", "START": "1899-08-22", "END": "1899-09-02", "LEAGUE": "NL", "NOTES": "Temporary structure after fire on August 12", "AKA": null, "Exact": "Y", "Latitude": 38.245792, "Longitude": -85.799812, "Altitude": 452 }, "geometry": { "type": "Point", "coordinates": [ -85.799812, 38.245792 ] } },
{ "type": "Feature", "properties": { "PARKID": "LUD01", "NAME": "Ludlow Baseball Park", "CITY": "Ludlow", "STATE": "KY", "START": "1875-09-22", "END": "1875-09-22", "LEAGUE": null, "NOTES": "PH2", "AKA": null, "Exact": "N", "Latitude": 39.088421, "Longitude": -84.524465, "Altitude": 599 }, "geometry": { "type": "Point", "coordinates": [ -84.524465, 39.088421 ] } },
{ "type": "Feature", "properties": { "PARKID": "MAS01", "NAME": "Long Island Grounds", "CITY": "Maspeth", "STATE": "NY", "START": "1890-07-27", "END": "1890-08-03", "LEAGUE": "AA", "NOTES": "BR4: 2 games", "AKA": "Maspeth Ball Grounds; Long Island Recreation Grounds", "Exact": "Y", "Latitude": 40.719873, "Longitude": -73.914837, "Altitude": 28 }, "geometry": { "type": "Point", "coordinates": [ -73.914837, 40.719873 ] } },
{ "type": "Feature", "properties": { "PARKID": "MIA01", "NAME": "Pro Player Stadium", "CITY": "Miami", "STATE": "FL", "START": "1993-04-05", "END": "2011-09-28", "LEAGUE": "NL", "NOTES": null, "AKA": "Joe Robbie Stadium;  Dolphins Stadium; Sun Life Stadium; LandShark Stadium", "Exact": "Y", "Latitude": 25.957877, "Longitude": -80.238831, "Altitude": 5 }, "geometry": { "type": "Point", "coordinates": [ -80.238831, 25.957877 ] } },
{ "type": "Feature", "properties": { "PARKID": "MIA02", "NAME": "Marlins Park", "CITY": "Miami", "STATE": "FL", "START": "2012-04-04", "END": null, "LEAGUE": "NL", "NOTES": null, "AKA": null, "Exact": "Y", "Latitude": 25.778165, "Longitude": -80.219541, "Altitude": 6 }, "geometry": { "type": "Point", "coordinates": [ -80.219541, 25.778165 ] } },
{ "type": "Feature", "properties": { "PARKID": "MID01", "NAME": "Mansfield Club Grounds", "CITY": "Middletown", "STATE": "CT", "START": "1872-05-02", "END": "1872-07-27", "LEAGUE": null, "NOTES": null, "AKA": null, "Exact": "Y", "Latitude": 41.557225, "Longitude": -72.631223, "Altitude": 105 }, "geometry": { "type": "Point", "coordinates": [ -72.631223, 41.557225 ] } },
{ "type": "Feature", "properties": { "PARKID": "MIL01", "NAME": "Milwaukee Base-Ball Grounds", "CITY": "Milwaukee", "STATE": "WI", "START": "1878-05-14", "END": "1878-09-14", "LEAGUE": "NL", "NOTES": null, "AKA": null, "Exact": "Y", "Latitude": 43.036451, "Longitude": -87.925583, "Altitude": 611 }, "geometry": { "type": "Point", "coordinates": [ -87.925583, 43.036451 ] } },
{ "type": "Feature", "properties": { "PARKID": "MIL02", "NAME": "Wright Street Grounds", "CITY": "Milwaukee", "STATE": "WI", "START": "1884-09-27", "END": "1885-09-25", "LEAGUE": null, "NOTES": "UA:1884; BFN:9/4/1885; PRO: 9/25/1885", "AKA": "Milwaukee Baseball Park", "Exact": "Y", "Latitude": 43.064848, "Longitude": -87.926184, "Altitude": 687 }, "geometry": { "type": "Point", "coordinates": [ -87.926184, 43.064848 ] } },
{ "type": "Feature", "properties": { "PARKID": "MIL03", "NAME": "Borchert Field", "CITY": "Milwaukee", "STATE": "WI", "START": "1891-09-10", "END": "1891-10-04", "LEAGUE": "AA", "NOTES": null, "AKA": "Athletic Park; Brewer Field; Athletic Field", "Exact": "Y", "Latitude": 43.07394, "Longitude": -87.920648, "Altitude": 681 }, "geometry": { "type": "Point", "coordinates": [ -87.920648, 43.07394 ] } },
{ "type": "Feature", "properties": { "PARKID": "MIL04", "NAME": "Lloyd Street Grounds", "CITY": "Milwaukee", "STATE": "WI", "START": "1901-05-03", "END": "1901-09-12", "LEAGUE": "AL", "NOTES": null, "AKA": "Milwaukee Baseball Park", "Exact": "Y", "Latitude": 43.059126, "Longitude": -87.933329, "Altitude": 677 }, "geometry": { "type": "Point", "coordinates": [ -87.933329, 43.059126 ] } },
{ "type": "Feature", "properties": { "PARKID": "MIL05", "NAME": "County Stadium", "CITY": "Milwaukee", "STATE": "WI", "START": "1953-04-14", "END": "2000-09-28", "LEAGUE": null, "NOTES": "MLN:1953-65; CHA:9gms(1968)&11gms(1969);MIL:70-00", "AKA": null, "Exact": "Y", "Latitude": 43.0299, "Longitude": -87.974365, "Altitude": 606 }, "geometry": { "type": "Point", "coordinates": [ -87.974365, 43.0299 ] } },
{ "type": "Feature", "properties": { "PARKID": "MIL06", "NAME": "Miller Park", "CITY": "Milwaukee", "STATE": "WI", "START": "2001-04-06", "END": null, "LEAGUE": "NL", "NOTES": null, "AKA": null, "Exact": "Y", "Latitude": 43.028232, "Longitude": -87.970966, "Altitude": 602 }, "geometry": { "type": "Point", "coordinates": [ -87.970966, 43.028232 ] } },
{ "type": "Feature", "properties": { "PARKID": "MIN01", "NAME": "Athletic Park", "CITY": "Minneapolis", "STATE": "MN", "START": "1891-10-02", "END": "1891-10-02", "LEAGUE": "AA", "NOTES": "ML2", "AKA": null, "Exact": "Y", "Latitude": 44.980392, "Longitude": -93.274809, "Altitude": 849 }, "geometry": { "type": "Point", "coordinates": [ -93.274809, 44.980392 ] } },
{ "type": "Feature", "properties": { "PARKID": "MIN02", "NAME": "Metropolitan Stadium", "CITY": "Bloomington", "STATE": "MN", "START": "1961-04-21", "END": "1981-09-30", "LEAGUE": "AL", "NOTES": null, "AKA": null, "Exact": "Y", "Latitude": 44.854783, "Longitude": -93.242921, "Altitude": 821 }, "geometry": { "type": "Point", "coordinates": [ -93.242921, 44.854783 ] } },
{ "type": "Feature", "properties": { "PARKID": "MIN03", "NAME": "Hubert H. Humphrey Metrodome", "CITY": "Minneapolis", "STATE": "MN", "START": "1982-04-06", "END": "2009-10-06", "LEAGUE": "AL", "NOTES": null, "AKA": "The Metrodome", "Exact": "Y", "Latitude": 44.973926, "Longitude": -93.258287, "Altitude": 854 }, "geometry": { "type": "Point", "coordinates": [ -93.258287, 44.973926 ] } },
{ "type": "Feature", "properties": { "PARKID": "MIN04", "NAME": "Target Field", "CITY": "Minneapolis", "STATE": "MN", "START": "2010-04-12", "END": null, "LEAGUE": "AL", "NOTES": null, "AKA": null, "Exact": "Y", "Latitude": 44.981749, "Longitude": -93.278026, "Altitude": 840 }, "geometry": { "type": "Point", "coordinates": [ -93.278026, 44.981749 ] } },
{ "type": "Feature", "properties": { "PARKID": "MNT01", "NAME": "Estadio Monterrey", "CITY": "Monterrey", "STATE": "MX", "START": "1996-08-16", "END": "2018-05-06", "LEAGUE": "NL", "NOTES": "SDN:8/16&8/17&8/18/1996; 4/4/1999", "AKA": "Estadio de Baseball Monterrey", "Exact": "Y", "Latitude": 25.718006, "Longitude": -100.315407, "Altitude": 1743 }, "geometry": { "type": "Point", "coordinates": [ -100.315407, 25.718006 ] } },
{ "type": "Feature", "properties": { "PARKID": "MON01", "NAME": "Parc Jarry", "CITY": "Montreal", "STATE": "QUE", "START": "1969-04-14", "END": "1976-09-26", "LEAGUE": "NL", "NOTES": null, "AKA": "Jarry Park", "Exact": "Y", "Latitude": 45.53291, "Longitude": -73.627094, "Altitude": 190 }, "geometry": { "type": "Point", "coordinates": [ -73.627094, 45.53291 ] } },
{ "type": "Feature", "properties": { "PARKID": "MON02", "NAME": "Stade Olympique", "CITY": "Montreal", "STATE": "QUE", "START": "1977-04-15", "END": "2004-09-29", "LEAGUE": "NL", "NOTES": null, "AKA": "Olympic Stadium", "Exact": "Y", "Latitude": 45.557969, "Longitude": -73.551925, "Altitude": 89 }, "geometry": { "type": "Point", "coordinates": [ -73.551925, 45.557969 ] } },
{ "type": "Feature", "properties": { "PARKID": "NEW01", "NAME": "Howard Avenue Grounds", "CITY": "New Haven", "STATE": "CT", "START": "1875-04-26", "END": "1877-09-22", "LEAGUE": null, "NOTES": null, "AKA": null, "Exact": "Y", "Latitude": 41.293714, "Longitude": -72.932295, "Altitude": 63 }, "geometry": { "type": "Point", "coordinates": [ -72.932295, 41.293714 ] } },
{ "type": "Feature", "properties": { "PARKID": "NEW02", "NAME": "Hamilton Park", "CITY": "New Haven", "STATE": "CT", "START": "1875-04-21", "END": "1875-04-21", "LEAGUE": null, "NOTES": null, "AKA": "Brewster Park", "Exact": "Y", "Latitude": 41.321348, "Longitude": -72.95404, "Altitude": 63 }, "geometry": { "type": "Point", "coordinates": [ -72.95404, 41.321348 ] } },
{ "type": "Feature", "properties": { "PARKID": "NEW03", "NAME": "Beyerle's Park", "CITY": "Newburgh Township", "STATE": "OH", "START": "1888-09-02", "END": "1888-09-02", "LEAGUE": "AA", "NOTES": "1 CLE game", "AKA": "Forest City Park; Tate Field", "Exact": "Y", "Latitude": 41.459711, "Longitude": -81.664424, "Altitude": 394 }, "geometry": { "type": "Point", "coordinates": [ -81.664424, 41.459711 ] } },
{ "type": "Feature", "properties": { "PARKID": "NWK01", "NAME": "Wiedenmeyer's Park", "CITY": "Newark", "STATE": "NJ", "START": "1904-07-17", "END": "1904-07-17", "LEAGUE": "AL", "NOTES": "NYA", "AKA": null, "Exact": "Y", "Latitude": 40.7195, "Longitude": -74.1468, "Altitude": 13 }, "geometry": { "type": "Point", "coordinates": [ -74.1468, 40.7195 ] } },
{ "type": "Feature", "properties": { "PARKID": "NYC01", "NAME": "Union Grounds", "CITY": "Brooklyn", "STATE": "NY", "START": "1871-05-25", "END": "1878-07-26", "LEAGUE": null, "NOTES": "NY2:1871-75;BR1:1872;BR2:1873-75;NY3:1876;HAR:1877", "AKA": "Union Skating Rink; Union Skating Pond", "Exact": "Y", "Latitude": 40.704264, "Longitude": -73.955027, "Altitude": 38 }, "geometry": { "type": "Point", "coordinates": [ -73.955027, 40.704264 ] } },
{ "type": "Feature", "properties": { "PARKID": "NYC02", "NAME": "Capitoline Grounds", "CITY": "Brooklyn", "STATE": "NY", "START": "1872-05-06", "END": "1872-10-31", "LEAGUE": null, "NOTES": "BR2", "AKA": "Capitoline Skating Pond; Union and Capitoline Grounds; Capitoline; Capitoline Skating Lake and Base Ball Ground", "Exact": "Y", "Latitude": 40.683, "Longitude": -73.948515, "Altitude": 49 }, "geometry": { "type": "Point", "coordinates": [ -73.948515, 40.683 ] } },
{ "type": "Feature", "properties": { "PARKID": "NYC03", "NAME": "Polo Grounds I (Southeast Diamond)", "CITY": "New York", "STATE": "NY", "START": "1883-05-01", "END": "1888-10-13", "LEAGUE": null, "NOTES": "NY1:1883-88; NY4:7/17/1884-1885", "AKA": "Polo Field East", "Exact": "Y", "Latitude": 40.797523, "Longitude": -73.949579, "Altitude": 20 }, "geometry": { "type": "Point", "coordinates": [ -73.949579, 40.797523 ] } },
{ "type": "Feature", "properties": { "PARKID": "NYC04", "NAME": "Polo Grounds II (Southwest Diamond)", "CITY": "New York", "STATE": "NY", "START": "1883-05-30", "END": "1883-09-04", "LEAGUE": "AA", "NOTES": null, "AKA": "Polo Field West; Metropolitan Field", "Exact": "Y", "Latitude": 40.798303, "Longitude": -73.95151, "Altitude": 21 }, "geometry": { "type": "Point", "coordinates": [ -73.95151, 40.798303 ] } },
{ "type": "Feature", "properties": { "PARKID": "NYC05", "NAME": "Washington Park I", "CITY": "Brooklyn", "STATE": "NY", "START": "1884-05-05", "END": "1889-05-04", "LEAGUE": "AA", "NOTES": "BR3", "AKA": null, "Exact": "Y", "Latitude": 40.672685, "Longitude": -73.985006, "Altitude": 30 }, "geometry": { "type": "Point", "coordinates": [ -73.985006, 40.672685 ] } },
{ "type": "Feature", "properties": { "PARKID": "NYC06", "NAME": "Metropolitan Park", "CITY": "New York", "STATE": "NY", "START": "1884-05-13", "END": "1884-08-23", "LEAGUE": "AA", "NOTES": null, "AKA": "East River Ballpark", "Exact": "Y", "Latitude": 40.790424, "Longitude": -73.938013, "Altitude": 6 }, "geometry": { "type": "Point", "coordinates": [ -73.938013, 40.790424 ] } },
{ "type": "Feature", "properties": { "PARKID": "NYC07", "NAME": "Grauer's Ridgewood Park", "CITY": "Queens", "STATE": "NY", "START": "1886-05-02", "END": "1886-09-19", "LEAGUE": "AA", "NOTES": "BR3: Sundays (1886)", "AKA": "Ridgewood Park I; Horse Market", "Exact": "Y", "Latitude": 40.697792, "Longitude": -73.901514, "Altitude": 75 }, "geometry": { "type": "Point", "coordinates": [ -73.901514, 40.697792 ] } },
{ "type": "Feature", "properties": { "PARKID": "NYC08", "NAME": "Washington Park II", "CITY": "Brooklyn", "STATE": "NY", "START": "1889-05-30", "END": "1890-10-03", "LEAGUE": null, "NOTES": "BR3:1889; BRO:1890", "AKA": null, "Exact": "Y", "Latitude": 40.672685, "Longitude": -73.985006, "Altitude": 30 }, "geometry": { "type": "Point", "coordinates": [ -73.985006, 40.672685 ] } },
{ "type": "Feature", "properties": { "PARKID": "NYC09", "NAME": "Polo Grounds III", "CITY": "New York", "STATE": "NY", "START": "1889-07-08", "END": "1890-09-13", "LEAGUE": "NL", "NOTES": null, "AKA": "Manhattan Field; New Polo Grounds", "Exact": "Y", "Latitude": 40.830228, "Longitude": -73.938505, "Altitude": 18 }, "geometry": { "type": "Point", "coordinates": [ -73.938505, 40.830228 ] } },
{ "type": "Feature", "properties": { "PARKID": "NYC10", "NAME": "Polo Grounds IV", "CITY": "New York", "STATE": "NY", "START": "1890-04-19", "END": "1911-04-13", "LEAGUE": null, "NOTES": "NYP:1890; NY1:1891-1911", "AKA": "Brotherhood Park; New Polo Grounds", "Exact": "Y", "Latitude": 40.831462, "Longitude": -73.936724, "Altitude": 13 }, "geometry": { "type": "Point", "coordinates": [ -73.936724, 40.831462 ] } },
{ "type": "Feature", "properties": { "PARKID": "NYC11", "NAME": "Eastern Park", "CITY": "Brooklyn", "STATE": "NY", "START": "1890-04-28", "END": "1897-10-02", "LEAGUE": null, "NOTES": "BRP:1890; BRO:1891-97", "AKA": "Brotherhood Park; Atlantic Park", "Exact": "Y", "Latitude": 40.669542, "Longitude": -73.902853, "Altitude": 40 }, "geometry": { "type": "Point", "coordinates": [ -73.902853, 40.669542 ] } },
{ "type": "Feature", "properties": { "PARKID": "NYC12", "NAME": "Washington Park III", "CITY": "Brooklyn", "STATE": "NY", "START": "1898-04-30", "END": "1912-10-05", "LEAGUE": null, "NOTES": "BRO:1898-1912", "AKA": null, "Exact": "Y", "Latitude": 40.675411, "Longitude": -73.986773, "Altitude": 26 }, "geometry": { "type": "Point", "coordinates": [ -73.986773, 40.675411 ] } },
{ "type": "Feature", "properties": { "PARKID": "NYC13", "NAME": "Hilltop Park", "CITY": "New York", "STATE": "NY", "START": "1903-04-30", "END": "1912-10-05", "LEAGUE": null, "NOTES": "NYA:1903-1912; NY1: 4/15 to 5/30/1911", "AKA": "Highlanders Park; American League Ballpark; The Hilltop", "Exact": "Y", "Latitude": 40.840334, "Longitude": -73.941788, "Altitude": 164 }, "geometry": { "type": "Point", "coordinates": [ -73.941788, 40.840334 ] } },
{ "type": "Feature", "properties": { "PARKID": "NYC14", "NAME": "Polo Grounds V", "CITY": "New York", "STATE": "NY", "START": "1911-06-28", "END": "1963-09-18", "LEAGUE": null, "NOTES": "NY1:1911-1957;NYA:1913-1922;NYN:1962-63", "AKA": "Brush Stadium", "Exact": "Y", "Latitude": 40.8316, "Longitude": -73.936896, "Altitude": 13 }, "geometry": { "type": "Point", "coordinates": [ -73.936896, 40.8316 ] } },
{ "type": "Feature", "properties": { "PARKID": "NYC15", "NAME": "Ebbets Field", "CITY": "Brooklyn", "STATE": "NY", "START": "1913-04-09", "END": "1957-09-24", "LEAGUE": "NL", "NOTES": null, "AKA": null, "Exact": "Y", "Latitude": 40.664768, "Longitude": -73.958374, "Altitude": 84 }, "geometry": { "type": "Point", "coordinates": [ -73.958374, 40.664768 ] } },
{ "type": "Feature", "properties": { "PARKID": "NYC16", "NAME": "Yankee Stadium I", "CITY": "New York", "STATE": "NY", "START": "1923-04-18", "END": "2008-09-21", "LEAGUE": "AL", "NOTES": "no games 1974-75", "AKA": null, "Exact": "Y", "Latitude": 40.826959, "Longitude": -73.927749, "Altitude": 18 }, "geometry": { "type": "Point", "coordinates": [ -73.927749, 40.826959 ] } },
{ "type": "Feature", "properties": { "PARKID": "NYC17", "NAME": "Shea Stadium", "CITY": "New York", "STATE": "NY", "START": "1964-04-17", "END": "2008-09-28", "LEAGUE": "NL", "NOTES": "NYN:1964-2008; NYA:1974-75", "AKA": "William A. Shea Stadium", "Exact": "Y", "Latitude": 40.755753, "Longitude": -73.847814, "Altitude": 13 }, "geometry": { "type": "Point", "coordinates": [ -73.847814, 40.755753 ] } },
{ "type": "Feature", "properties": { "PARKID": "NYC18", "NAME": "Wallace's Ridgewood Park", "CITY": "Queens", "STATE": "NY", "START": "1887-04-24", "END": "1890-06-08", "LEAGUE": "AA", "NOTES": "BR3: Sundays (1887-89); BR4: 1890", "AKA": "Ridgewood Park II; Wallace's Grounds", "Exact": "Y", "Latitude": 40.694886, "Longitude": -73.90502, "Altitude": 71 }, "geometry": { "type": "Point", "coordinates": [ -73.90502, 40.694886 ] } },
{ "type": "Feature", "properties": { "PARKID": "NYC19", "NAME": "Washington Park IV", "CITY": "Brooklyn", "STATE": "NY", "START": "1914-05-11", "END": "1915-09-30", "LEAGUE": "FL", "NOTES": null, "AKA": null, "Exact": "Y", "Latitude": 40.67468, "Longitude": -73.985936, "Altitude": 26 }, "geometry": { "type": "Point", "coordinates": [ -73.985936, 40.67468 ] } },
{ "type": "Feature", "properties": { "PARKID": "NYC20", "NAME": "Citi Field", "CITY": "New York", "STATE": "NY", "START": "2009-04-13", "END": null, "LEAGUE": "NL", "NOTES": null, "AKA": null, "Exact": "Y", "Latitude": 40.757134, "Longitude": -73.84584, "Altitude": 13 }, "geometry": { "type": "Point", "coordinates": [ -73.84584, 40.757134 ] } },
{ "type": "Feature", "properties": { "PARKID": "NYC21", "NAME": "New Yankee Stadium", "CITY": "New York", "STATE": "NY", "START": "2009-04-16", "END": null, "LEAGUE": "AL", "NOTES": null, "AKA": "Yankee Stadium II", "Exact": "Y", "Latitude": 40.829586, "Longitude": -73.926413, "Altitude": 11 }, "geometry": { "type": "Point", "coordinates": [ -73.926413, 40.829586 ] } },
{ "type": "Feature", "properties": { "PARKID": "OAK01", "NAME": "Oakland-Alameda County Coliseum", "CITY": "Oakland", "STATE": "CA", "START": "1968-04-17", "END": null, "LEAGUE": "AL", "NOTES": null, "AKA": "Network Associates Coliseum; McAfee Coliseum; UMAX Coliseum; Overstock.com Coliseum; RingCentral Coliseum; Oakland Coliseum", "Exact": "Y", "Latitude": 37.751619, "Longitude": -122.200451, "Altitude": 0 }, "geometry": { "type": "Point", "coordinates": [ -122.200451, 37.751619 ] } },
{ "type": "Feature", "properties": { "PARKID": "OMA01", "NAME": "TD Ameritrade Park", "CITY": "Omaha", "STATE": "NE", "START": "2019-06-13", "END": "2019-06-13", "LEAGUE": "AL", "NOTES": null, "AKA": null, "Exact": "Y", "Latitude": 41.267, "Longitude": -95.932, "Altitude": 989 }, "geometry": { "type": "Point", "coordinates": [ -95.932, 41.267 ] } },
{ "type": "Feature", "properties": { "PARKID": "PEN01", "NAME": "Pendleton Park", "CITY": "Cincinnati", "STATE": "OH", "START": "1891-04-25", "END": "1891-08-13", "LEAGUE": "AA", "NOTES": "CN3", "AKA": "East End Park; East End Grounds: Cincinnati Gym Grounds", "Exact": "Y", "Latitude": 39.117813, "Longitude": -84.447058, "Altitude": 476 }, "geometry": { "type": "Point", "coordinates": [ -84.447058, 39.117813 ] } },
{ "type": "Feature", "properties": { "PARKID": "PHI01", "NAME": "Jefferson Street Grounds", "CITY": "Philadelphia", "STATE": "PA", "START": "1871-06-03", "END": "1890-10-11", "LEAGUE": null, "NOTES": "PH1:1871-75; PH2:1873-75; PHN:1876; PH4:1883-1890", "AKA": "Athletics Park; Athletic Base Ball Grounds", "Exact": "Y", "Latitude": 39.977635, "Longitude": -75.178031, "Altitude": 104 }, "geometry": { "type": "Point", "coordinates": [ -75.178031, 39.977635 ] } },
{ "type": "Feature", "properties": { "PARKID": "PHI02", "NAME": "Centennial Park", "CITY": "Philadelphia", "STATE": "PA", "START": "1875-04-21", "END": "1875-06-04", "LEAGUE": null, "NOTES": "PH3", "AKA": "Columbia Park", "Exact": "Y", "Latitude": 39.981581, "Longitude": -75.174812, "Altitude": 104 }, "geometry": { "type": "Point", "coordinates": [ -75.174812, 39.981581 ] } },
{ "type": "Feature", "properties": { "PARKID": "PHI03", "NAME": "Oakdale Park", "CITY": "Philadelphia", "STATE": "PA", "START": "1882-05-02", "END": "1882-09-21", "LEAGUE": "AA", "NOTES": "PH4", "AKA": null, "Exact": "Y", "Latitude": 39.991673, "Longitude": -75.149576, "Altitude": 99 }, "geometry": { "type": "Point", "coordinates": [ -75.149576, 39.991673 ] } },
{ "type": "Feature", "properties": { "PARKID": "PHI04", "NAME": "Recreation Park", "CITY": "Philadelphia", "STATE": "PA", "START": "1883-05-01", "END": "1886-10-09", "LEAGUE": "NL", "NOTES": null, "AKA": null, "Exact": "Y", "Latitude": 39.981581, "Longitude": -75.174812, "Altitude": 104 }, "geometry": { "type": "Point", "coordinates": [ -75.174812, 39.981581 ] } },
{ "type": "Feature", "properties": { "PARKID": "PHI05", "NAME": "Keystone Park", "CITY": "Philadelphia", "STATE": "PA", "START": "1884-04-17", "END": "1884-08-07", "LEAGUE": "UA", "NOTES": null, "AKA": null, "Exact": "Y", "Latitude": 39.927663, "Longitude": -75.169641, "Altitude": 26 }, "geometry": { "type": "Point", "coordinates": [ -75.169641, 39.927663 ] } },
{ "type": "Feature", "properties": { "PARKID": "PHI06", "NAME": "Huntingdon Grounds I", "CITY": "Philadelphia", "STATE": "PA", "START": "1887-04-30", "END": "1894-08-04", "LEAGUE": "NL", "NOTES": "no games 8/7 to 8/17/1894; fire 8/6/1894", "AKA": "Philadelphia Baseball Grounds; National League Park", "Exact": "Y", "Latitude": 39.993268, "Longitude": -75.155638, "Altitude": 98 }, "geometry": { "type": "Point", "coordinates": [ -75.155638, 39.993268 ] } },
{ "type": "Feature", "properties": { "PARKID": "PHI07", "NAME": "Forepaugh Park", "CITY": "Philadelphia", "STATE": "PA", "START": "1890-04-30", "END": "1891-10-05", "LEAGUE": null, "NOTES": "PHP:1890; PH4:1891", "AKA": "Brotherhood Park; Athletic Park", "Exact": "Y", "Latitude": 39.988552, "Longitude": -75.154985, "Altitude": 77 }, "geometry": { "type": "Point", "coordinates": [ -75.154985, 39.988552 ] } },
{ "type": "Feature", "properties": { "PARKID": "PHI08", "NAME": "University of Penn. Athletic Field", "CITY": "Philadelphia", "STATE": "PA", "START": "1894-08-11", "END": "1894-08-17", "LEAGUE": "NL", "NOTES": "PHI:8/11&8/14 to 8/17/1894", "AKA": null, "Exact": "Y", "Latitude": 39.950685, "Longitude": -75.199004, "Altitude": 77 }, "geometry": { "type": "Point", "coordinates": [ -75.199004, 39.950685 ] } },
{ "type": "Feature", "properties": { "PARKID": "PHI09", "NAME": "Baker Bowl", "CITY": "Philadelphia", "STATE": "PA", "START": "1895-05-02", "END": "1938-06-30", "LEAGUE": "NL", "NOTES": "PHI:not 8/20 to 9/10/1903", "AKA": "Huntingdon Grounds; National League Park; Philadelphia Baseball Grounds", "Exact": "Y", "Latitude": 39.993268, "Longitude": -75.155638, "Altitude": 98 }, "geometry": { "type": "Point", "coordinates": [ -75.155638, 39.993268 ] } },
{ "type": "Feature", "properties": { "PARKID": "PHI10", "NAME": "Columbia Park", "CITY": "Philadelphia", "STATE": "PA", "START": "1901-04-26", "END": "1908-10-03", "LEAGUE": null, "NOTES": "PHA; PHI:8/20 to 9/10/1903", "AKA": null, "Exact": "Y", "Latitude": 39.98117, "Longitude": -75.182923, "Altitude": 98 }, "geometry": { "type": "Point", "coordinates": [ -75.182923, 39.98117 ] } },
{ "type": "Feature", "properties": { "PARKID": "PHI11", "NAME": "Shibe Park", "CITY": "Philadelphia", "STATE": "PA", "START": "1909-04-12", "END": "1970-10-01", "LEAGUE": null, "NOTES": "PHA:1909-1954; PHI:5/16to5/28/1927;7/4/1938to1970", "AKA": "Connie Mack Stadium", "Exact": "Y", "Latitude": 39.996127, "Longitude": -75.164751, "Altitude": 116 }, "geometry": { "type": "Point", "coordinates": [ -75.164751, 39.996127 ] } },
{ "type": "Feature", "properties": { "PARKID": "PHI12", "NAME": "Veterans Stadium", "CITY": "Philadelphia", "STATE": "PA", "START": "1971-04-10", "END": "2003-09-28", "LEAGUE": "NL", "NOTES": null, "AKA": null, "Exact": "Y", "Latitude": 39.906537, "Longitude": -75.171495, "Altitude": 18 }, "geometry": { "type": "Point", "coordinates": [ -75.171495, 39.906537 ] } },
{ "type": "Feature", "properties": { "PARKID": "PHI13", "NAME": "Citizens Bank Park", "CITY": "Philadelphia", "STATE": "PA", "START": "2004-04-12", "END": null, "LEAGUE": "NL", "NOTES": null, "AKA": null, "Exact": "Y", "Latitude": 39.906109, "Longitude": -75.166485, "Altitude": 19 }, "geometry": { "type": "Point", "coordinates": [ -75.166485, 39.906109 ] } },
{ "type": "Feature", "properties": { "PARKID": "PHI14", "NAME": "Huntingdon Grounds II", "CITY": "Philadelphia", "STATE": "PA", "START": "1894-08-18", "END": "1894-09-06", "LEAGUE": "NL", "NOTES": "Temporary structure after fire on August 6", "AKA": "Philadelphia Baseball Grounds; National League Park", "Exact": "Y", "Latitude": 39.993268, "Longitude": -75.155638, "Altitude": 98 }, "geometry": { "type": "Point", "coordinates": [ -75.155638, 39.993268 ] } },
{ "type": "Feature", "properties": { "PARKID": "PHO01", "NAME": "Chase Field", "CITY": "Phoenix", "STATE": "AZ", "START": "1998-03-31", "END": null, "LEAGUE": "NL", "NOTES": null, "AKA": "Bank One Ballpark", "Exact": "Y", "Latitude": 33.44542, "Longitude": -112.066793, "Altitude": 1059 }, "geometry": { "type": "Point", "coordinates": [ -112.066793, 33.44542 ] } },
{ "type": "Feature", "properties": { "PARKID": "PIT01", "NAME": "Union Park", "CITY": "Pittsburgh", "STATE": "PA", "START": "1878-08-22", "END": "1878-08-24", "LEAGUE": "NL", "NOTES": "PRO: 3 games", "AKA": null, "Exact": "Y", "Latitude": 40.452295, "Longitude": -80.030175, "Altitude": 767 }, "geometry": { "type": "Point", "coordinates": [ -80.030175, 40.452295 ] } },
{ "type": "Feature", "properties": { "PARKID": "PIT02", "NAME": "Exposition Park I", "CITY": "Pittsburgh", "STATE": "PA", "START": "1882-05-10", "END": "1883-09-06", "LEAGUE": null, "NOTES": "PT1:1882-1883; PTU: 8/25 to 8/30/1884", "AKA": "Lower Field", "Exact": "Y", "Latitude": 40.445937, "Longitude": -80.010704, "Altitude": 729 }, "geometry": { "type": "Point", "coordinates": [ -80.010704, 40.445937 ] } },
{ "type": "Feature", "properties": { "PARKID": "PIT03", "NAME": "Exposition Park II", "CITY": "Pittsburgh", "STATE": "PA", "START": "1883-05-01", "END": "1884-08-30", "LEAGUE": "AA", "NOTES": "PT1", "AKA": "Upper Field", "Exact": "Y", "Latitude": 40.445937, "Longitude": -80.010704, "Altitude": 729 }, "geometry": { "type": "Point", "coordinates": [ -80.010704, 40.445937 ] } },
{ "type": "Feature", "properties": { "PARKID": "PIT04", "NAME": "Recreation Park", "CITY": "Pittsburgh", "STATE": "PA", "START": "1884-05-01", "END": "1890-09-30", "LEAGUE": null, "NOTES": "PT1:1884-1886; PIT:1887-1890", "AKA": "Coliseum Bike Track; Union Park", "Exact": "Y", "Latitude": 40.453988, "Longitude": -80.019145, "Altitude": 765 }, "geometry": { "type": "Point", "coordinates": [ -80.019145, 40.453988 ] } },
{ "type": "Feature", "properties": { "PARKID": "PIT05", "NAME": "Exposition Park III", "CITY": "Pittsburgh", "STATE": "PA", "START": "1890-04-19", "END": "1915-10-02", "LEAGUE": null, "NOTES": "PTP:1890; PIT:1891-6/29/1909; PTF:1914-15", "AKA": "New Expo", "Exact": "Y", "Latitude": 40.445937, "Longitude": -80.010704, "Altitude": 729 }, "geometry": { "type": "Point", "coordinates": [ -80.010704, 40.445937 ] } },
{ "type": "Feature", "properties": { "PARKID": "PIT06", "NAME": "Forbes Field", "CITY": "Pittsburgh", "STATE": "PA", "START": "1909-06-30", "END": "1970-06-28", "LEAGUE": "NL", "NOTES": null, "AKA": null, "Exact": "Y", "Latitude": 40.441302, "Longitude": -79.953449, "Altitude": 893 }, "geometry": { "type": "Point", "coordinates": [ -79.953449, 40.441302 ] } },
{ "type": "Feature", "properties": { "PARKID": "PIT07", "NAME": "Three Rivers Stadium", "CITY": "Pittsburgh", "STATE": "PA", "START": "1970-07-16", "END": "2000-10-01", "LEAGUE": "NL", "NOTES": null, "AKA": null, "Exact": "Y", "Latitude": 40.446533, "Longitude": -80.012614, "Altitude": 730 }, "geometry": { "type": "Point", "coordinates": [ -80.012614, 40.446533 ] } },
{ "type": "Feature", "properties": { "PARKID": "PIT08", "NAME": "PNC Park", "CITY": "Pittsburgh", "STATE": "PA", "START": "2001-04-09", "END": null, "LEAGUE": "NL", "NOTES": null, "AKA": null, "Exact": "Y", "Latitude": 40.446835, "Longitude": -80.005683, "Altitude": 724 }, "geometry": { "type": "Point", "coordinates": [ -80.005683, 40.446835 ] } },
{ "type": "Feature", "properties": { "PARKID": "PRO01", "NAME": "Adelaide Avenue Grounds", "CITY": "Providence", "STATE": "RI", "START": "1875-06-12", "END": "1875-06-22", "LEAGUE": null, "NOTES": "NH1: 6/12/1875; BS1: 6/22/1875", "AKA": "Providence Base Ball Grounds; Adelaide Park", "Exact": "Y", "Latitude": 41.796629, "Longitude": -71.416372, "Altitude": 61 }, "geometry": { "type": "Point", "coordinates": [ -71.416372, 41.796629 ] } },
{ "type": "Feature", "properties": { "PARKID": "PRO02", "NAME": "Messer Street Grounds", "CITY": "Providence", "STATE": "RI", "START": "1878-05-01", "END": "1885-09-09", "LEAGUE": "NL", "NOTES": null, "AKA": "Messer Park", "Exact": "Y", "Latitude": 41.813501, "Longitude": -71.436952, "Altitude": 83 }, "geometry": { "type": "Point", "coordinates": [ -71.436952, 41.813501 ] } },
{ "type": "Feature", "properties": { "PARKID": "RCK01", "NAME": "Virginia State Agricultural Society Fair Grounds", "CITY": "Rockford", "STATE": "IL", "START": "1871-05-06", "END": "1871-08-03", "LEAGUE": null, "NOTES": null, "AKA": "Richmond Fair Grounds", "Exact": "Y", "Latitude": 42.277663, "Longitude": -89.101335, "Altitude": 714 }, "geometry": { "type": "Point", "coordinates": [ -89.101335, 42.277663 ] } },
{ "type": "Feature", "properties": { "PARKID": "RIC01", "NAME": "Richmond Fair Grounds", "CITY": "Richmond", "STATE": "VA", "START": "1875-04-29", "END": "1875-05-01", "LEAGUE": null, "NOTES": "WS6: 2 games", "AKA": "Virginia State Agricultural Society Fair Grounds", "Exact": "Y", "Latitude": 37.546758, "Longitude": -77.450364, "Altitude": 185 }, "geometry": { "type": "Point", "coordinates": [ -77.450364, 37.546758 ] } },
{ "type": "Feature", "properties": { "PARKID": "RIC02", "NAME": "Allens Pasture", "CITY": "Richmond", "STATE": "VA", "START": "1884-08-05", "END": "1884-10-15", "LEAGUE": "AA", "NOTES": null, "AKA": "Virginia Base-Ball Park", "Exact": "Y", "Latitude": 37.553945, "Longitude": -77.458003, "Altitude": 205 }, "geometry": { "type": "Point", "coordinates": [ -77.458003, 37.553945 ] } },
{ "type": "Feature", "properties": { "PARKID": "ROC01", "NAME": "Culver Field I", "CITY": "Rochester", "STATE": "NY", "START": "1890-04-28", "END": "1890-10-04", "LEAGUE": "AA", "NOTES": null, "AKA": null, "Exact": "Y", "Latitude": 43.15464, "Longitude": -77.576033, "Altitude": 492 }, "geometry": { "type": "Point", "coordinates": [ -77.576033, 43.15464 ] } },
{ "type": "Feature", "properties": { "PARKID": "ROC02", "NAME": "Culver Field II", "CITY": "Rochester", "STATE": "NY", "START": "1898-08-27", "END": "1898-08-29", "LEAGUE": "NL", "NOTES": "CL4: 2 games", "AKA": null, "Exact": "Y", "Latitude": 43.15464, "Longitude": -77.576033, "Altitude": 492 }, "geometry": { "type": "Point", "coordinates": [ -77.576033, 43.15464 ] } },
{ "type": "Feature", "properties": { "PARKID": "ROC03", "NAME": "Ontario Beach Grounds", "CITY": "Rochester", "STATE": "NY", "START": "1898-08-28", "END": "1898-08-28", "LEAGUE": "NL", "NOTES": "CL4", "AKA": null, "Exact": "Y", "Latitude": 43.256802, "Longitude": -77.606814, "Altitude": 268 }, "geometry": { "type": "Point", "coordinates": [ -77.606814, 43.256802 ] } },
{ "type": "Feature", "properties": { "PARKID": "SAI01", "NAME": "St. George Cricket Grounds", "CITY": "New York", "STATE": "NY", "START": "1886-04-22", "END": "1889-06-14", "LEAGUE": null, "NOTES": "NY4:1886-87; NY1:4/29 to 6/14/1889", "AKA": "Mutrie's Dump", "Exact": "Y", "Latitude": 40.646663, "Longitude": -74.077862, "Altitude": 5 }, "geometry": { "type": "Point", "coordinates": [ -74.077862, 40.646663 ] } },
{ "type": "Feature", "properties": { "PARKID": "SAN01", "NAME": "Jack Murphy Stadium", "CITY": "San Diego", "STATE": "CA", "START": "1969-04-08", "END": "2003-09-28", "LEAGUE": "NL", "NOTES": null, "AKA": "San Diego Stadium;  Qualcomm Stadium; San Diego-Jack Murphy Stadium", "Exact": "Y", "Latitude": 32.783073, "Longitude": -117.119645, "Altitude": 83 }, "geometry": { "type": "Point", "coordinates": [ -117.119645, 32.783073 ] } },
{ "type": "Feature", "properties": { "PARKID": "SAN02", "NAME": "Petco Park", "CITY": "San Diego", "STATE": "CA", "START": "2004-04-08", "END": null, "LEAGUE": "NL", "NOTES": null, "AKA": null, "Exact": "Y", "Latitude": 32.70753, "Longitude": -117.157056, "Altitude": 14 }, "geometry": { "type": "Point", "coordinates": [ -117.157056, 32.70753 ] } },
{ "type": "Feature", "properties": { "PARKID": "SEA01", "NAME": "Sicks' Stadium", "CITY": "Seattle", "STATE": "WA", "START": "1969-04-11", "END": "1969-10-02", "LEAGUE": "AL", "NOTES": null, "AKA": "Sicks' Select Stadium; Sicks' Seattle Stadium; Seattle Stadium", "Exact": "Y", "Latitude": 47.579199, "Longitude": -122.297403, "Altitude": 61 }, "geometry": { "type": "Point", "coordinates": [ -122.297403, 47.579199 ] } },
{ "type": "Feature", "properties": { "PARKID": "SEA02", "NAME": "Kingdome", "CITY": "Seattle", "STATE": "WA", "START": "1977-04-06", "END": "1999-06-27", "LEAGUE": "AL", "NOTES": null, "AKA": "King County Stadium", "Exact": "Y", "Latitude": 47.595133, "Longitude": -122.331639, "Altitude": 17 }, "geometry": { "type": "Point", "coordinates": [ -122.331639, 47.595133 ] } },
{ "type": "Feature", "properties": { "PARKID": "SEA03", "NAME": "T-Mobile Park", "CITY": "Seattle", "STATE": "WA", "START": "1999-07-15", "END": null, "LEAGUE": "AL", "NOTES": null, "AKA": "Safeco Field", "Exact": "Y", "Latitude": 47.591443, "Longitude": -122.332283, "Altitude": 17 }, "geometry": { "type": "Point", "coordinates": [ -122.332283, 47.591443 ] } },
{ "type": "Feature", "properties": { "PARKID": "SFO01", "NAME": "Seals Stadium", "CITY": "San Francisco", "STATE": "CA", "START": "1958-04-15", "END": "1959-09-20", "LEAGUE": "NL", "NOTES": null, "AKA": null, "Exact": "Y", "Latitude": 37.766774, "Longitude": -122.409337, "Altitude": 61 }, "geometry": { "type": "Point", "coordinates": [ -122.409337, 37.766774 ] } },
{ "type": "Feature", "properties": { "PARKID": "SFO02", "NAME": "Candlestick Park", "CITY": "San Francisco", "STATE": "CA", "START": "1960-04-12", "END": "1999-09-30", "LEAGUE": "NL", "NOTES": null, "AKA": "3Com Park; 3Com Park at Candlestick Point; The Stick", "Exact": "Y", "Latitude": 37.713297, "Longitude": -122.38627, "Altitude": 135 }, "geometry": { "type": "Point", "coordinates": [ -122.38627, 37.713297 ] } },
{ "type": "Feature", "properties": { "PARKID": "SFO03", "NAME": "Oracle Park", "CITY": "San Francisco", "STATE": "CA", "START": "2000-04-11", "END": null, "LEAGUE": "NL", "NOTES": null, "AKA": "Pac Bell Park; SBC Park; AT&T Park", "Exact": "Y", "Latitude": 37.778324, "Longitude": -122.389221, "Altitude": 8 }, "geometry": { "type": "Point", "coordinates": [ -122.389221, 37.778324 ] } },
{ "type": "Feature", "properties": { "PARKID": "SJU01", "NAME": "Estadio Hiram Bithorn", "CITY": "San Juan", "STATE": "PR", "START": "2001-04-01", "END": "2018-04-18", "LEAGUE": "NL", "NOTES": "TOR: 4/1/2001; MON:4/11-20;6/3-8;9/5-11/2003", "AKA": "Hiram Bithorn Stadium", "Exact": "Y", "Latitude": 18.416612, "Longitude": -66.072787, "Altitude": 10 }, "geometry": { "type": "Point", "coordinates": [ -66.072787, 18.416612 ] } },
{ "type": "Feature", "properties": { "PARKID": "SPA01", "NAME": "Ft. Street Grounds", "CITY": "St. Paul", "STATE": "MN", "START": null, "END": null, "LEAGUE": null, "NOTES": "Never Played in Home Park", "AKA": "West Seventh Street Park", "Exact": "Y", "Latitude": 44.93322, "Longitude": -93.122029, "Altitude": 791 }, "geometry": { "type": "Point", "coordinates": [ -93.122029, 44.93322 ] } },
{ "type": "Feature", "properties": { "PARKID": "SPR01", "NAME": "Hampden Park Race Track", "CITY": "Springfield", "STATE": "MA", "START": "1872-07-23", "END": "1875-05-14", "LEAGUE": null, "NOTES": "TRO:7/23/1872; BS1:7/16/1873;5/14/1875", "AKA": "Springfield Track", "Exact": "Y", "Latitude": 42.107144, "Longitude": -72.605784, "Altitude": 67 }, "geometry": { "type": "Point", "coordinates": [ -72.605784, 42.107144 ] } },
{ "type": "Feature", "properties": { "PARKID": "STL01", "NAME": "Red Stocking Base-Ball Park", "CITY": "St. Louis", "STATE": "MO", "START": "1875-05-04", "END": "1875-07-04", "LEAGUE": null, "NOTES": "SL1", "AKA": "Compton Avenue Base Ball Park", "Exact": "Y", "Latitude": 38.629315, "Longitude": -90.23415, "Altitude": 462 }, "geometry": { "type": "Point", "coordinates": [ -90.23415, 38.629315 ] } },
{ "type": "Feature", "properties": { "PARKID": "STL02", "NAME": "Grand Avenue Park", "CITY": "St. Louis", "STATE": "MO", "START": "1875-05-06", "END": "1878-07-13", "LEAGUE": null, "NOTES": "SL2:1875; SL3:1876-1877", "AKA": "Sportsman's Park; Grand Avenue Grounds", "Exact": "Y", "Latitude": 38.657795, "Longitude": -90.220619, "Altitude": 492 }, "geometry": { "type": "Point", "coordinates": [ -90.220619, 38.657795 ] } },
{ "type": "Feature", "properties": { "PARKID": "STL03", "NAME": "Sportsman's Park I", "CITY": "St. Louis", "STATE": "MO", "START": "1882-05-02", "END": "1892-10-13", "LEAGUE": null, "NOTES": "SL4:1882-1891; SLN:1892", "AKA": "Athletic Park", "Exact": "Y", "Latitude": 38.657795, "Longitude": -90.220619, "Altitude": 492 }, "geometry": { "type": "Point", "coordinates": [ -90.220619, 38.657795 ] } },
{ "type": "Feature", "properties": { "PARKID": "STL04", "NAME": "Palace Park of America", "CITY": "St. Louis", "STATE": "MO", "START": "1884-04-20", "END": "1886-09-23", "LEAGUE": null, "NOTES": "SLU:1884; SL5:1885-86", "AKA": "Union Grounds", "Exact": "Y", "Latitude": 38.646394, "Longitude": -90.212177, "Altitude": 507 }, "geometry": { "type": "Point", "coordinates": [ -90.212177, 38.646394 ] } },
{ "type": "Feature", "properties": { "PARKID": "STL05", "NAME": "Robison Field", "CITY": "St. Louis", "STATE": "MO", "START": "1893-04-27", "END": "1920-06-06", "LEAGUE": "NL", "NOTES": null, "AKA": "League Park; Cardinal Field; Vandeventer Lot", "Exact": "Y", "Latitude": 38.662799, "Longitude": -90.222147, "Altitude": 500 }, "geometry": { "type": "Point", "coordinates": [ -90.222147, 38.662799 ] } },
{ "type": "Feature", "properties": { "PARKID": "STL06", "NAME": "Sportsman's Park II", "CITY": "St. Louis", "STATE": "MO", "START": "1902-04-23", "END": "1908-10-06", "LEAGUE": "AL", "NOTES": null, "AKA": null, "Exact": "Y", "Latitude": 38.657795, "Longitude": -90.220619, "Altitude": 492 }, "geometry": { "type": "Point", "coordinates": [ -90.220619, 38.657795 ] } },
{ "type": "Feature", "properties": { "PARKID": "STL07", "NAME": "Sportsman's Park III", "CITY": "St. Louis", "STATE": "MO", "START": "1909-04-14", "END": "1966-05-08", "LEAGUE": null, "NOTES": "SLA:1909-1953; SLN:7/1/1920 to 5/8/1966", "AKA": "Busch Stadium", "Exact": "Y", "Latitude": 38.657718, "Longitude": -90.220344, "Altitude": 492 }, "geometry": { "type": "Point", "coordinates": [ -90.220344, 38.657718 ] } },
{ "type": "Feature", "properties": { "PARKID": "STL08", "NAME": "Handlan's Park", "CITY": "St. Louis", "STATE": "MO", "START": "1914-04-16", "END": "1915-10-03", "LEAGUE": "FL", "NOTES": null, "AKA": "Federal League Park; Laclede Street Field; Grand and Market; Steininger Field", "Exact": "Y", "Latitude": 38.633589, "Longitude": -90.23254, "Altitude": 512 }, "geometry": { "type": "Point", "coordinates": [ -90.23254, 38.633589 ] } },
{ "type": "Feature", "properties": { "PARKID": "STL09", "NAME": "Busch Stadium II", "CITY": "St. Louis", "STATE": "MO", "START": "1966-05-12", "END": "2005-10-02", "LEAGUE": "NL", "NOTES": null, "AKA": "Busch Memorial Stadium", "Exact": "Y", "Latitude": 38.62393, "Longitude": -90.192326, "Altitude": 460 }, "geometry": { "type": "Point", "coordinates": [ -90.192326, 38.62393 ] } },
{ "type": "Feature", "properties": { "PARKID": "STL10", "NAME": "Busch Stadium III", "CITY": "St. Louis", "STATE": "MO", "START": "2006-04-10", "END": null, "LEAGUE": "NL", "NOTES": null, "AKA": "Busch Stadium", "Exact": "Y", "Latitude": 38.622622, "Longitude": -90.192841, "Altitude": 438 }, "geometry": { "type": "Point", "coordinates": [ -90.192841, 38.622622 ] } },
{ "type": "Feature", "properties": { "PARKID": "STP01", "NAME": "Tropicana Field", "CITY": "St. Petersburg", "STATE": "FL", "START": "1998-03-31", "END": null, "LEAGUE": "AL", "NOTES": null, "AKA": null, "Exact": "Y", "Latitude": 27.768254, "Longitude": -82.653431, "Altitude": 41 }, "geometry": { "type": "Point", "coordinates": [ -82.653431, 27.768254 ] } },
{ "type": "Feature", "properties": { "PARKID": "SYD01", "NAME": "Sydney Cricket Ground", "CITY": "Sydney", "STATE": "AUS", "START": "2014-03-22", "END": "2014-03-23", "LEAGUE": "NL", "NOTES": null, "AKA": null, "Exact": "Y", "Latitude": -33.891699, "Longitude": 151.224729, "Altitude": 190 }, "geometry": { "type": "Point", "coordinates": [ 151.224729, -33.891699 ] } },
{ "type": "Feature", "properties": { "PARKID": "SYR01", "NAME": "Star Park I", "CITY": "Syracuse", "STATE": "NY", "START": "1879-05-28", "END": "1879-09-10", "LEAGUE": "NL", "NOTES": null, "AKA": "Newell Park", "Exact": "Y", "Latitude": 43.034993, "Longitude": -76.148711, "Altitude": 392 }, "geometry": { "type": "Point", "coordinates": [ -76.148711, 43.034993 ] } },
{ "type": "Feature", "properties": { "PARKID": "SYR02", "NAME": "Star Park II", "CITY": "Syracuse", "STATE": "NY", "START": "1890-04-28", "END": "1890-10-04", "LEAGUE": "AA", "NOTES": null, "AKA": null, "Exact": "Y", "Latitude": 43.039494, "Longitude": -76.151866, "Altitude": 395 }, "geometry": { "type": "Point", "coordinates": [ -76.151866, 43.039494 ] } },
{ "type": "Feature", "properties": { "PARKID": "SYR03", "NAME": "Iron Pier", "CITY": "Syracuse", "STATE": "NY", "START": "1890-08-03", "END": "1890-08-03", "LEAGUE": "AA", "NOTES": "Forfeit by LS2 to SR2; no game ever played here", "AKA": null, "Exact": "Y", "Latitude": 43.072139, "Longitude": -76.17549, "Altitude": 395 }, "geometry": { "type": "Point", "coordinates": [ -76.17549, 43.072139 ] } },
{ "type": "Feature", "properties": { "PARKID": "THR01", "NAME": "Three Rivers Park", "CITY": "Three Rivers", "STATE": "NY", "START": "1890-05-18", "END": "1890-07-20", "LEAGUE": "AA", "NOTES": "SR2: Sundays", "AKA": null, "Exact": "Y", "Latitude": 43.203262, "Longitude": -76.278024, "Altitude": 369 }, "geometry": { "type": "Point", "coordinates": [ -76.278024, 43.203262 ] } },
{ "type": "Feature", "properties": { "PARKID": "TOK01", "NAME": "Tokyo Dome", "CITY": "Tokyo", "STATE": "JAP", "START": "2000-03-29", "END": "2012-03-29", "LEAGUE": null, "NOTES": "NYN&CHN:2000;NYA&TBA:2004;BOS&OAK:2008", "AKA": "Big Egg; Tokyo Kyujyo", "Exact": "Y", "Latitude": 35.705526, "Longitude": 139.751928, "Altitude": 57 }, "geometry": { "type": "Point", "coordinates": [ 139.751928, 35.705526 ] } },
{ "type": "Feature", "properties": { "PARKID": "TOL01", "NAME": "League Park", "CITY": "Toledo", "STATE": "OH", "START": "1884-05-14", "END": "1884-09-24", "LEAGUE": "AA", "NOTES": null, "AKA": null, "Exact": "Y", "Latitude": 41.653696, "Longitude": -83.545536, "Altitude": 609 }, "geometry": { "type": "Point", "coordinates": [ -83.545536, 41.653696 ] } },
{ "type": "Feature", "properties": { "PARKID": "TOL02", "NAME": "Tri-State Fair Grounds", "CITY": "Toledo", "STATE": "OH", "START": "1884-09-13", "END": "1884-09-13", "LEAGUE": "AA", "NOTES": null, "AKA": null, "Exact": "Y", "Latitude": 41.654033, "Longitude": -83.590833, "Altitude": 617 }, "geometry": { "type": "Point", "coordinates": [ -83.590833, 41.654033 ] } },
{ "type": "Feature", "properties": { "PARKID": "TOL03", "NAME": "Speranza Park", "CITY": "Toledo", "STATE": "OH", "START": "1890-05-01", "END": "1890-10-02", "LEAGUE": "AA", "NOTES": null, "AKA": null, "Exact": "Y", "Latitude": 41.669628, "Longitude": -83.543978, "Altitude": 609 }, "geometry": { "type": "Point", "coordinates": [ -83.543978, 41.669628 ] } },
{ "type": "Feature", "properties": { "PARKID": "TOL04", "NAME": "Armory Park", "CITY": "Toledo", "STATE": "OH", "START": "1903-06-28", "END": "1903-08-16", "LEAGUE": "AL", "NOTES": "DET: 2 games", "AKA": "Military Park", "Exact": "Y", "Latitude": 41.656331, "Longitude": -83.536221, "Altitude": 597 }, "geometry": { "type": "Point", "coordinates": [ -83.536221, 41.656331 ] } },
{ "type": "Feature", "properties": { "PARKID": "TOR01", "NAME": "Exhibition Stadium", "CITY": "Toronto", "STATE": "ONT", "START": "1977-04-07", "END": "1989-05-28", "LEAGUE": "AL", "NOTES": "first game: snow covering outfield", "AKA": "Prohibition Stadium; Canadian National Exhibition Stadium", "Exact": "Y", "Latitude": 43.632568, "Longitude": -79.417679, "Altitude": 273 }, "geometry": { "type": "Point", "coordinates": [ -79.417679, 43.632568 ] } },
{ "type": "Feature", "properties": { "PARKID": "TOR02", "NAME": "Rogers Centre", "CITY": "Toronto", "STATE": "ONT", "START": "1989-06-05", "END": null, "LEAGUE": "AL", "NOTES": null, "AKA": "Skydome", "Exact": "Y", "Latitude": 43.641256, "Longitude": -79.389054, "Altitude": 268 }, "geometry": { "type": "Point", "coordinates": [ -79.389054, 43.641256 ] } },
{ "type": "Feature", "properties": { "PARKID": "TRO01", "NAME": "Haymakers' Grounds", "CITY": "Troy", "STATE": "NY", "START": "1871-05-09", "END": "1881-09-30", "LEAGUE": null, "NOTES": "TRO:1871-72; TRN: 1880-81", "AKA": null, "Exact": "Y", "Latitude": 42.759763, "Longitude": -73.681229, "Altitude": 32 }, "geometry": { "type": "Point", "coordinates": [ -73.681229, 42.759763 ] } },
{ "type": "Feature", "properties": { "PARKID": "TRO02", "NAME": "Putnam Grounds", "CITY": "Troy", "STATE": "NY", "START": "1879-05-28", "END": "1879-09-20", "LEAGUE": "NL", "NOTES": "TRN: 05/30/1882 (Gm 2)", "AKA": "The Puts; Beman Park", "Exact": "Y", "Latitude": 42.733038, "Longitude": -73.676616, "Altitude": 250 }, "geometry": { "type": "Point", "coordinates": [ -73.676616, 42.733038 ] } },
{ "type": "Feature", "properties": { "PARKID": "WAR01", "NAME": "Rocky Point Park", "CITY": "Warwick", "STATE": "RI", "START": "1903-09-06", "END": "1903-09-06", "LEAGUE": "NL", "NOTES": "BSN; outfield surrounded by ocean", "AKA": null, "Exact": "Y", "Latitude": 41.690486, "Longitude": -71.364405, "Altitude": 38 }, "geometry": { "type": "Point", "coordinates": [ -71.364405, 41.690486 ] } },
{ "type": "Feature", "properties": { "PARKID": "WAS01", "NAME": "Olympic Grounds", "CITY": "Washington", "STATE": "DC", "START": "1871-05-05", "END": "1875-06-08", "LEAGUE": null, "NOTES": "WS3:1871-1872; WS5:1873; WS6:1875", "AKA": null, "Exact": "Y", "Latitude": 38.914522, "Longitude": -77.037562, "Altitude": 91 }, "geometry": { "type": "Point", "coordinates": [ -77.037562, 38.914522 ] } },
{ "type": "Feature", "properties": { "PARKID": "WAS02", "NAME": "National Grounds", "CITY": "Washington", "STATE": "DC", "START": "1872-04-20", "END": "1872-05-25", "LEAGUE": null, "NOTES": "WS4", "AKA": null, "Exact": "Y", "Latitude": 38.91261, "Longitude": -77.036478, "Altitude": 89 }, "geometry": { "type": "Point", "coordinates": [ -77.036478, 38.91261 ] } },
{ "type": "Feature", "properties": { "PARKID": "WAS03", "NAME": "Capitol Grounds", "CITY": "Washington", "STATE": "DC", "START": "1884-04-18", "END": "1884-09-25", "LEAGUE": "UA", "NOTES": null, "AKA": "Union Association Park", "Exact": "Y", "Latitude": 38.892956, "Longitude": -77.006695, "Altitude": 74 }, "geometry": { "type": "Point", "coordinates": [ -77.006695, 38.892956 ] } },
{ "type": "Feature", "properties": { "PARKID": "WAS04", "NAME": "Athletic Park", "CITY": "Washington", "STATE": "DC", "START": "1884-05-01", "END": "1884-08-02", "LEAGUE": "AA", "NOTES": null, "AKA": null, "Exact": "Y", "Latitude": 38.914797, "Longitude": -77.024472, "Altitude": 85 }, "geometry": { "type": "Point", "coordinates": [ -77.024472, 38.914797 ] } },
{ "type": "Feature", "properties": { "PARKID": "WAS05", "NAME": "Swampoodle Grounds", "CITY": "Washington", "STATE": "DC", "START": "1886-04-29", "END": "1889-09-21", "LEAGUE": "NL", "NOTES": null, "AKA": "Capital Park Grounds", "Exact": "Y", "Latitude": 38.898236, "Longitude": -77.007383, "Altitude": 40 }, "geometry": { "type": "Point", "coordinates": [ -77.007383, 38.898236 ] } },
{ "type": "Feature", "properties": { "PARKID": "WAS06", "NAME": "Boundary Field", "CITY": "Washington", "STATE": "DC", "START": "1891-04-13", "END": "1899-10-14", "LEAGUE": null, "NOTES": "WS9:1891; WSN: 1892-1899", "AKA": "National Park; Beyer's Seventh Street Park", "Exact": "Y", "Latitude": 38.917576, "Longitude": -77.020191, "Altitude": 100 }, "geometry": { "type": "Point", "coordinates": [ -77.020191, 38.917576 ] } },
{ "type": "Feature", "properties": { "PARKID": "WAS07", "NAME": "American League Park I", "CITY": "Washington", "STATE": "DC", "START": "1901-04-29", "END": "1903-09-28", "LEAGUE": "AL", "NOTES": "first PA announcer (1902)", "AKA": "National Park", "Exact": "Y", "Latitude": 38.901672, "Longitude": -76.986996, "Altitude": 48 }, "geometry": { "type": "Point", "coordinates": [ -76.986996, 38.901672 ] } },
{ "type": "Feature", "properties": { "PARKID": "WAS08", "NAME": "American League Park II", "CITY": "Washington", "STATE": "DC", "START": "1904-04-14", "END": "1910-10-06", "LEAGUE": "AL", "NOTES": null, "AKA": "National Park", "Exact": "Y", "Latitude": 38.917576, "Longitude": -77.020191, "Altitude": 100 }, "geometry": { "type": "Point", "coordinates": [ -77.020191, 38.917576 ] } },
{ "type": "Feature", "properties": { "PARKID": "WAS09", "NAME": "Griffith Stadium", "CITY": "Washington", "STATE": "DC", "START": "1911-04-12", "END": "1961-09-21", "LEAGUE": "AL", "NOTES": "WS1:1911-60; WS2:1961", "AKA": "National Park; Clark Griffith Park", "Exact": "Y", "Latitude": 38.917576, "Longitude": -77.020191, "Altitude": 100 }, "geometry": { "type": "Point", "coordinates": [ -77.020191, 38.917576 ] } },
{ "type": "Feature", "properties": { "PARKID": "WAS10", "NAME": "Robert F. Kennedy Stadium", "CITY": "Washington", "STATE": "DC", "START": "1962-04-09", "END": "2007-09-23", "LEAGUE": null, "NOTES": "AL:1962-71; NL:2005-07", "AKA": "D.C. Stadium; RFK Stadium", "Exact": "Y", "Latitude": 38.889766, "Longitude": -76.971837, "Altitude": 24 }, "geometry": { "type": "Point", "coordinates": [ -76.971837, 38.889766 ] } },
{ "type": "Feature", "properties": { "PARKID": "WAS11", "NAME": "Nationals Park", "CITY": "Washington", "STATE": "DC", "START": "2008-03-30", "END": null, "LEAGUE": "NL", "NOTES": null, "AKA": null, "Exact": "Y", "Latitude": 38.872987, "Longitude": -77.007435, "Altitude": 23 }, "geometry": { "type": "Point", "coordinates": [ -77.007435, 38.872987 ] } },
{ "type": "Feature", "properties": { "PARKID": "WAT01", "NAME": "Troy Ball Club Grounds", "CITY": "Watervliet", "STATE": "NY", "START": "1882-05-20", "END": "1882-08-26", "LEAGUE": "NL", "NOTES": "TRN", "AKA": "West Troy Grounds", "Exact": "Y", "Latitude": 42.732806, "Longitude": -73.70947, "Altitude": 47 }, "geometry": { "type": "Point", "coordinates": [ -73.70947, 42.732806 ] } },
{ "type": "Feature", "properties": { "PARKID": "WAV01", "NAME": "Waverly Fairgrounds", "CITY": "Waverly", "STATE": "NJ", "START": "1873-04-28", "END": "1873-07-23", "LEAGUE": null, "NOTES": "ELI", "AKA": "Domestic Field; Waverly Park; Weequahic Park", "Exact": "Y", "Latitude": 40.701664, "Longitude": -74.19705, "Altitude": 18 }, "geometry": { "type": "Point", "coordinates": [ -74.19705, 40.701664 ] } },
{ "type": "Feature", "properties": { "PARKID": "WEE01", "NAME": "Monitor Grounds", "CITY": "Weehawken", "STATE": "NJ", "START": "1887-09-11", "END": "1887-09-11", "LEAGUE": "AA", "NOTES": "NY4", "AKA": "Monitor Park", "Exact": "Y", "Latitude": 40.786143, "Longitude": -74.006989, "Altitude": 179 }, "geometry": { "type": "Point", "coordinates": [ -74.006989, 40.786143 ] } },
{ "type": "Feature", "properties": { "PARKID": "WHE01", "NAME": "Island Grounds", "CITY": "Wheeling", "STATE": "WV", "START": "1890-09-22", "END": "1890-09-22", "LEAGUE": "NL", "NOTES": "PIT", "AKA": "Wheeling Grounds", "Exact": "Y", "Latitude": 40.063386, "Longitude": -80.733735, "Altitude": 649 }, "geometry": { "type": "Point", "coordinates": [ -80.733735, 40.063386 ] } },
{ "type": "Feature", "properties": { "PARKID": "WIL01", "NAME": "Union Street Park", "CITY": "Wilmington", "STATE": "DE", "START": "1884-09-02", "END": "1884-09-10", "LEAGUE": "UA", "NOTES": "9/15 forfeit", "AKA": "Union Street Ball Grounds; Union Park; Wilmington Grounds; Quickstep Park", "Exact": "Y", "Latitude": 39.747745, "Longitude": -75.574942, "Altitude": 150 }, "geometry": { "type": "Point", "coordinates": [ -75.574942, 39.747745 ] } },
{ "type": "Feature", "properties": { "PARKID": "WIL02", "NAME": "Bowman Field", "CITY": "Williamsport", "STATE": "PA", "START": "2017-08-20", "END": "2018-08-19", "LEAGUE": "NL", "NOTES": "PIT", "AKA": "BB&T Ballpark at Historic Bowman Field", "Exact": "Y", "Latitude": 41.242347, "Longitude": -77.047067, "Altitude": 518 }, "geometry": { "type": "Point", "coordinates": [ -77.047067, 41.242347 ] } },
{ "type": "Feature", "properties": { "PARKID": "WNY01", "NAME": "West New York Field Club Grounds", "CITY": "West New York", "STATE": "NJ", "START": "1898-09-11", "END": "1899-09-17", "LEAGUE": "NL", "NOTES": "BRO:9/18 & 10/2/1898; NY1: 9/11/98; 6/4 & 7/16 & 8/13 & 9/17/99", "AKA": "Weehawken Cricket Grounds", "Exact": "N", "Latitude": 40.772796, "Longitude": -74.019648, "Altitude": 175 }, "geometry": { "type": "Point", "coordinates": [ -74.019648, 40.772796 ] } },
{ "type": "Feature", "properties": { "PARKID": "WOR01", "NAME": "Agricultural County Fair Grounds I", "CITY": "Worcester", "STATE": "MA", "START": "1880-05-01", "END": "1882-09-29", "LEAGUE": "NL", "NOTES": null, "AKA": "Worcester Driving Park", "Exact": "Y", "Latitude": 42.268844, "Longitude": -71.814226, "Altitude": 496 }, "geometry": { "type": "Point", "coordinates": [ -71.814226, 42.268844 ] } },
{ "type": "Feature", "properties": { "PARKID": "WOR02", "NAME": "Agricultural County Fair Grounds II", "CITY": "Worcester", "STATE": "MA", "START": "1887-08-17", "END": "1887-08-17", "LEAGUE": "NL", "NOTES": "1 BSN game", "AKA": "Worcester Driving Park", "Exact": "Y", "Latitude": 42.268844, "Longitude": -71.814226, "Altitude": 496 }, "geometry": { "type": "Point", "coordinates": [ -71.814226, 42.268844 ] } },
{ "type": "Feature", "properties": { "PARKID": "WOR03", "NAME": "Worcester Driving Park Grounds", "CITY": "Worcester", "STATE": "MA", "START": "1874-10-30", "END": "1874-10-30", "LEAGUE": null, "NOTES": "1 BS1 game", "AKA": null, "Exact": "Y", "Latitude": 42.268721, "Longitude": -71.812404, "Altitude": 496 }, "geometry": { "type": "Point", "coordinates": [ -71.812404, 42.268721 ] } }
]
}
