{
"type": "FeatureCollection",
"name": "parks_final",
"crs": { "type": "name", "properties": { "name": "urn:ogc:def:crs:OGC:1.3:CRS84" } },
"features": [
{ "type": "Feature", "properties": { "PARKID": "ALB01", "NAME": "Riverside Park", "CITY": "East Albany", "STATE": "NY", "START": "18800911", "END": "18820530", "LEAGUE": "NL", "Latitude": 42.642295, "Longitude": -73.745198, "Altitude": "14", "TEAM": "Troy Trojans", "CAPACITY": "3000", "Notes": "https:\/\/www.statscrew.com\/venues\/v-38" }, "geometry": { "type": "Point", "coordinates": [ -73.745198, 42.642295 ] } },
{ "type": "Feature", "properties": { "PARKID": "ANA01", "NAME": "Angel Stadium of Anaheim", "CITY": "Anaheim", "STATE": "CA", "START": "19660419", "END": "", "LEAGUE": "AL", "Latitude": 33.80029, "Longitude": -117.882685, "Altitude": "154", "TEAM": "Los Angeles Angels", "CAPACITY": "45050", "Notes": "https:\/\/services.arcgis.com\/P3ePLMYs2RVChkJx\/arcgis\/rest\/services\/Major_League_Baseball_Stadiums\/FeatureServer\/0" }, "geometry": { "type": "Point", "coordinates": [ -117.882685, 33.80029 ] } },
{ "type": "Feature", "properties": { "PARKID": "ARL01", "NAME": "Arlington Stadium", "CITY": "Arlington", "STATE": "TX", "START": "19720421", "END": "19931003", "LEAGUE": "AL", "Latitude": 32.755974, "Longitude": -97.084778, "Altitude": "552", "TEAM": "Texas Rangers", "CAPACITY": "43521", "Notes": "https:\/\/www.mlb.com\/rangers\/history\/ballparks" }, "geometry": { "type": "Point", "coordinates": [ -97.084778, 32.755974 ] } },
{ "type": "Feature", "properties": { "PARKID": "ARL02", "NAME": "Globe Life Park", "CITY": "Arlington", "STATE": "TX", "START": "19940411", "END": "20190929", "LEAGUE": "AL", "Latitude": 32.751164, "Longitude": -97.082546, "Altitude": "549", "TEAM": "Texas Rangers", "CAPACITY": "48114", "Notes": "https:\/\/www.mlb.com\/rangers\/history\/ballparks" }, "geometry": { "type": "Point", "coordinates": [ -97.082546, 32.751164 ] } },
{ "type": "Feature", "properties": { "PARKID": "ARL03", "NAME": "Globe Life Field", "CITY": "Arlington", "STATE": "TX", "START": "20200724", "END": "", "LEAGUE": "AL", "Latitude": 32.747269, "Longitude": -97.083198, "Altitude": "551", "TEAM": "Texas Rangers", "CAPACITY": "40300", "Notes": "https:\/\/www.mlb.com\/rangers\/ballpark\/facts-figures" }, "geometry": { "type": "Point", "coordinates": [ -97.083198, 32.747269 ] } },
{ "type": "Feature", "properties": { "PARKID": "ATL01", "NAME": "Atlanta-Fulton County Stadium", "CITY": "Atlanta", "STATE": "GA", "START": "19660412", "END": "19960923", "LEAGUE": "NL", "Latitude": 33.739457, "Longitude": -84.389486, "Altitude": "979", "TEAM": "Atlanta Braves", "CAPACITY": "52769", "Notes": "https:\/\/en.wikipedia.org\/wiki\/Turner_Field" }, "geometry": { "type": "Point", "coordinates": [ -84.389486, 33.739457 ] } },
{ "type": "Feature", "properties": { "PARKID": "ATL02", "NAME": "Turner Field", "CITY": "Atlanta", "STATE": "GA", "START": "19970404", "END": "20161002", "LEAGUE": "NL", "Latitude": 33.735487, "Longitude": -84.389464, "Altitude": "939", "TEAM": "Atlanta Braves", "CAPACITY": "49586", "Notes": "https:\/\/en.wikipedia.org\/wiki\/Turner_Field" }, "geometry": { "type": "Point", "coordinates": [ -84.389464, 33.735487 ] } },
{ "type": "Feature", "properties": { "PARKID": "ATL03", "NAME": "SunTrust Park", "CITY": "Atlanta", "STATE": "GA", "START": "20170414", "END": "", "LEAGUE": "NL", "Latitude": 33.89127, "Longitude": -84.4681, "Altitude": "981", "TEAM": "Atlanta Braves", "CAPACITY": "41084", "Notes": "https:\/\/services.arcgis.com\/P3ePLMYs2RVChkJx\/arcgis\/rest\/services\/Major_League_Baseball_Stadiums\/FeatureServer\/0" }, "geometry": { "type": "Point", "coordinates": [ -84.4681, 33.89127 ] } },
{ "type": "Feature", "properties": { "PARKID": "BAL07", "NAME": "Oriole Park III", "CITY": "Baltimore", "STATE": "MD", "START": "18910511", "END": "18991010", "LEAGUE": "AL\/NL", "Latitude": 39.317361, "Longitude": -76.612034, "Altitude": "153", "TEAM": "Baltimore Orioles", "CAPACITY": "6500", "Notes": "http:\/\/www.projectballpark.org\/history\/aa\/oriole3.html" }, "geometry": { "type": "Point", "coordinates": [ -76.612034, 39.317361 ] } },
{ "type": "Feature", "properties": { "PARKID": "BAL09", "NAME": "Oriole Park IV", "CITY": "Baltimore", "STATE": "MD", "START": "19010426", "END": "19020929", "LEAGUE": "AL", "Latitude": 39.323868, "Longitude": -76.609953, "Altitude": "202", "TEAM": "Baltimore Orioles", "CAPACITY": "3000", "Notes": "https:\/\/sabr.org\/bioproj\/park\/american-league-park-baltimore\/" }, "geometry": { "type": "Point", "coordinates": [ -76.609953, 39.323868 ] } },
{ "type": "Feature", "properties": { "PARKID": "BAL11", "NAME": "Memorial Stadium", "CITY": "Baltimore", "STATE": "MD", "START": "19540415", "END": "19911006", "LEAGUE": "AL", "Latitude": 39.330001, "Longitude": -76.601488, "Altitude": "231", "TEAM": "Baltimore Orioles", "CAPACITY": "54000", "Notes": "https:\/\/www.mlb.com\/orioles\/history\/ballparks" }, "geometry": { "type": "Point", "coordinates": [ -76.601488, 39.330001 ] } },
{ "type": "Feature", "properties": { "PARKID": "BAL12", "NAME": "Oriole Park at Camden Yards", "CITY": "Baltimore", "STATE": "MD", "START": "19920406", "END": "", "LEAGUE": "AL", "Latitude": 39.283944, "Longitude": -76.621572, "Altitude": "35", "TEAM": "Baltimore Orioles", "CAPACITY": "45363", "Notes": "https:\/\/services.arcgis.com\/P3ePLMYs2RVChkJx\/arcgis\/rest\/services\/Major_League_Baseball_Stadiums\/FeatureServer\/0" }, "geometry": { "type": "Point", "coordinates": [ -76.621572, 39.283944 ] } },
{ "type": "Feature", "properties": { "PARKID": "BOS03", "NAME": "South End Grounds II", "CITY": "Boston", "STATE": "MA", "START": "18880525", "END": "18940514", "LEAGUE": "NL", "Latitude": 42.336836, "Longitude": -71.087769, "Altitude": "11", "TEAM": "Boston Beaneaters", "CAPACITY": "6800", "Notes": "https:\/\/www.ballparksofbaseball.com\/ballparks\/south-end-grounds\/ ; https:\/\/en.wikipedia.org\/wiki\/Atlanta_Braves" }, "geometry": { "type": "Point", "coordinates": [ -71.087769, 42.336836 ] } },
{ "type": "Feature", "properties": { "PARKID": "BOS05", "NAME": "South End Grounds III", "CITY": "Boston", "STATE": "MA", "START": "18940720", "END": "19140811", "LEAGUE": "NL", "Latitude": 42.336859, "Longitude": -71.087692, "Altitude": "11", "TEAM": "Boston Doves\/ Boston Rustlers\/ Boston Braves", "CAPACITY": "11000", "Notes": "https:\/\/www.baseball-reference.com\/bullpen\/South_End_Grounds#:~:text=After%20the%20fire%2C%20the%20Beaneaters,Braves%20Field%20the%20following%20season." }, "geometry": { "type": "Point", "coordinates": [ -71.087692, 42.336859 ] } },
{ "type": "Feature", "properties": { "PARKID": "BOS06", "NAME": "Huntington Avenue Baseball Grounds", "CITY": "Boston", "STATE": "MA", "START": "19010508", "END": "19111007", "LEAGUE": "AL", "Latitude": 42.339199, "Longitude": -71.08913, "Altitude": "8", "TEAM": "Boston Americans", "CAPACITY": "11500", "Notes": "https:\/\/en.wikipedia.org\/wiki\/Huntington_Avenue_Grounds" }, "geometry": { "type": "Point", "coordinates": [ -71.08913, 42.339199 ] } },
{ "type": "Feature", "properties": { "PARKID": "BOS07", "NAME": "Fenway Park", "CITY": "Boston", "STATE": "MA", "START": "19120420", "END": "", "LEAGUE": "AL", "Latitude": 42.346561, "Longitude": -71.097337, "Altitude": "16", "TEAM": "Boston Red Sox", "CAPACITY": "37493", "Notes": "https:\/\/services.arcgis.com\/P3ePLMYs2RVChkJx\/arcgis\/rest\/services\/Major_League_Baseball_Stadiums\/FeatureServer\/0" }, "geometry": { "type": "Point", "coordinates": [ -71.097337, 42.346561 ] } },
{ "type": "Feature", "properties": { "PARKID": "BOS08", "NAME": "Braves Field", "CITY": "Boston", "STATE": "MA", "START": "19150818", "END": "19520921", "LEAGUE": "NL", "Latitude": 42.353233, "Longitude": -71.119465, "Altitude": "26", "TEAM": "Boston Braves\/ Boston Bees", "CAPACITY": "40000", "Notes": "https:\/\/www.ballparksofbaseball.com\/ballparks\/braves-field\/" }, "geometry": { "type": "Point", "coordinates": [ -71.119465, 42.353233 ] } },
{ "type": "Feature", "properties": { "PARKID": "BUF01", "NAME": "Riverside Grounds", "CITY": "Buffalo", "STATE": "NY", "START": "18790501", "END": "18830908", "LEAGUE": "NL", "Latitude": 42.906379, "Longitude": -78.892599, "Altitude": "631", "TEAM": "Buffalo Bisons", "CAPACITY": "-", "Notes": "https:\/\/en.wikipedia.org\/wiki\/Olympic_Park_(Buffalo)" }, "geometry": { "type": "Point", "coordinates": [ -78.892599, 42.906379 ] } },
{ "type": "Feature", "properties": { "PARKID": "BUF02", "NAME": "Olympic Park I", "CITY": "Buffalo", "STATE": "NY", "START": "18840521", "END": "18851007", "LEAGUE": "NL", "Latitude": 42.905634, "Longitude": -78.881282, "Altitude": "632", "TEAM": "Buffalo Bisons", "CAPACITY": "-", "Notes": "https:\/\/en.wikipedia.org\/wiki\/Olympic_Park_(Buffalo)" }, "geometry": { "type": "Point", "coordinates": [ -78.881282, 42.905634 ] } },
{ "type": "Feature", "properties": { "PARKID": "CAN02", "NAME": "Pastime Park", "CITY": "Canton", "STATE": "OH", "START": "18900918", "END": "18900918", "LEAGUE": "NL", "Latitude": 40.81132, "Longitude": -81.4234, "Altitude": "1058", "TEAM": "Pittsburgh Burghers", "CAPACITY": "-", "Notes": "http:\/\/www.projectballpark.org\/history\/nl\/alt\/pasttime.html" }, "geometry": { "type": "Point", "coordinates": [ -81.4234, 40.81132 ] } },
{ "type": "Feature", "properties": { "PARKID": "CHI03", "NAME": "White Stocking Park", "CITY": "Chicago", "STATE": "IL", "START": "18780514", "END": "18841011", "LEAGUE": "NL", "Latitude": 41.883641, "Longitude": -87.623245, "Altitude": "585", "TEAM": "Chicago White Stockings ", "CAPACITY": "7000", "Notes": "https:\/\/www.seamheads.com\/ballparks\/ballpark.php?parkID=CHI01" }, "geometry": { "type": "Point", "coordinates": [ -87.623245, 41.883641 ] } },
{ "type": "Feature", "properties": { "PARKID": "CHI06", "NAME": "West Side Park", "CITY": "Chicago", "STATE": "IL", "START": "18850606", "END": "18911002", "LEAGUE": "NL", "Latitude": 41.874902, "Longitude": -87.660903, "Altitude": "588", "TEAM": "Chicago Colts", "CAPACITY": "10000", "Notes": "https:\/\/en.wikipedia.org\/wiki\/Chicago_Cubs" }, "geometry": { "type": "Point", "coordinates": [ -87.660903, 41.874902 ] } },
{ "type": "Feature", "properties": { "PARKID": "CHI07", "NAME": "South Side Park II", "CITY": "Chicago", "STATE": "IL", "START": "18900505", "END": "18930524", "LEAGUE": "NL", "Latitude": 41.832116, "Longitude": -87.629939, "Altitude": "595", "TEAM": "Chicago Colts", "CAPACITY": "-", "Notes": "http:\/\/www.projectballpark.org\/history\/pl\/south2.html" }, "geometry": { "type": "Point", "coordinates": [ -87.629939, 41.832116 ] } },
{ "type": "Feature", "properties": { "PARKID": "CHI08", "NAME": "West Side Grounds", "CITY": "Chicago", "STATE": "IL", "START": "18930514", "END": "19151003", "LEAGUE": "NL", "Latitude": 41.870218, "Longitude": -87.67251, "Altitude": "593", "TEAM": "Chicago Cubs", "CAPACITY": "16000", "Notes": "https:\/\/en.wikipedia.org\/wiki\/West_Side_Park#The_first_West_Side_Park_(1885%E2%80%931891)" }, "geometry": { "type": "Point", "coordinates": [ -87.67251, 41.870218 ] } },
{ "type": "Feature", "properties": { "PARKID": "CHI09", "NAME": "South Side Park III", "CITY": "Chicago", "STATE": "IL", "START": "19010424", "END": "19100627", "LEAGUE": "AL", "Latitude": 41.824857, "Longitude": -87.632664, "Altitude": "594", "TEAM": "Chicago White Sox\/ Chicago White Stockings", "CAPACITY": "15000", "Notes": "https:\/\/en.wikipedia.org\/wiki\/South_Side_Park" }, "geometry": { "type": "Point", "coordinates": [ -87.632664, 41.824857 ] } },
{ "type": "Feature", "properties": { "PARKID": "CHI10", "NAME": "Comiskey Park I", "CITY": "Chicago", "STATE": "IL", "START": "19100701", "END": "19900930", "LEAGUE": "AL", "Latitude": 41.83201, "Longitude": -87.634025, "Altitude": "594", "TEAM": "Chicago White Sox", "CAPACITY": "43951", "Notes": "https:\/\/en.wikipedia.org\/wiki\/Comiskey_Park" }, "geometry": { "type": "Point", "coordinates": [ -87.634025, 41.83201 ] } },
{ "type": "Feature", "properties": { "PARKID": "CHI11", "NAME": "Wrigley Field", "CITY": "Chicago", "STATE": "IL", "START": "19140423", "END": "", "LEAGUE": "NL", "Latitude": 41.948314, "Longitude": -87.655397, "Altitude": "599", "TEAM": "Chicago Cubs", "CAPACITY": "41160", "Notes": "https:\/\/services.arcgis.com\/P3ePLMYs2RVChkJx\/arcgis\/rest\/services\/Major_League_Baseball_Stadiums\/FeatureServer\/0" }, "geometry": { "type": "Point", "coordinates": [ -87.655397, 41.948314 ] } },
{ "type": "Feature", "properties": { "PARKID": "CHI12", "NAME": "Guaranteed Rate Park", "CITY": "Chicago", "STATE": "IL", "START": "19910418", "END": "", "LEAGUE": "AL", "Latitude": 41.829892, "Longitude": -87.633703, "Altitude": "594", "TEAM": "Chicago White Sox", "CAPACITY": "40615", "Notes": "https:\/\/services.arcgis.com\/P3ePLMYs2RVChkJx\/arcgis\/rest\/services\/Major_League_Baseball_Stadiums\/FeatureServer\/0" }, "geometry": { "type": "Point", "coordinates": [ -87.633703, 41.829892 ] } },
{ "type": "Feature", "properties": { "PARKID": "CIN02", "NAME": "Avenue Grounds", "CITY": "Cincinnati", "STATE": "OH", "START": "18760425", "END": "18790827", "LEAGUE": "NL", "Latitude": 39.142878, "Longitude": -84.54647, "Altitude": "480", "TEAM": "Red Stockings", "CAPACITY": "7000", "Notes": "https:\/\/www.retroseasons.com\/stadiums\/avenue-grounds\/" }, "geometry": { "type": "Point", "coordinates": [ -84.54647, 39.142878 ] } },
{ "type": "Feature", "properties": { "PARKID": "CIN05", "NAME": "League Park II", "CITY": "Cincinnati", "STATE": "OH", "START": "18940420", "END": "19011006", "LEAGUE": "NL", "Latitude": 39.116804, "Longitude": -84.53587, "Altitude": "489", "TEAM": "Cincinatti Reds", "CAPACITY": "3000", "Notes": "https:\/\/en.wikipedia.org\/wiki\/League_Park_(Cincinnati)" }, "geometry": { "type": "Point", "coordinates": [ -84.53587, 39.116804 ] } },
{ "type": "Feature", "properties": { "PARKID": "CIN06", "NAME": "Palace of the Fans", "CITY": "Cincinnati", "STATE": "OH", "START": "19020417", "END": "19111012", "LEAGUE": "NL", "Latitude": 39.116804, "Longitude": -84.53587, "Altitude": "489", "TEAM": "Cincinatti Reds", "CAPACITY": "6000", "Notes": "https:\/\/en.wikipedia.org\/wiki\/Palace_of_the_Fans" }, "geometry": { "type": "Point", "coordinates": [ -84.53587, 39.116804 ] } },
{ "type": "Feature", "properties": { "PARKID": "CIN07", "NAME": "Crosley Field", "CITY": "Cincinnati", "STATE": "OH", "START": "19120411", "END": "19700624", "LEAGUE": "NL", "Latitude": 39.116854, "Longitude": -84.535505, "Altitude": "488", "TEAM": "Cincinatti Reds", "CAPACITY": "29488", "Notes": "https:\/\/en.wikipedia.org\/wiki\/Crosley_Field" }, "geometry": { "type": "Point", "coordinates": [ -84.535505, 39.116854 ] } },
{ "type": "Feature", "properties": { "PARKID": "CIN08", "NAME": "Riverfront Stadium", "CITY": "Cincinnati", "STATE": "OH", "START": "19700630", "END": "20020922", "LEAGUE": "NL", "Latitude": 39.096548, "Longitude": -84.509756, "Altitude": "489", "TEAM": "Cincinatti Reds", "CAPACITY": "52952", "Notes": "https:\/\/en.wikipedia.org\/wiki\/Riverfront_Stadium" }, "geometry": { "type": "Point", "coordinates": [ -84.509756, 39.096548 ] } },
{ "type": "Feature", "properties": { "PARKID": "CIN09", "NAME": "Great American Ballpark", "CITY": "Cincinnati", "STATE": "OH", "START": "20030331", "END": "", "LEAGUE": "NL", "Latitude": 39.097213, "Longitude": -84.506483, "Altitude": "489", "TEAM": "Cincinatti Reds", "CAPACITY": "42319", "Notes": "https:\/\/services.arcgis.com\/P3ePLMYs2RVChkJx\/arcgis\/rest\/services\/Major_League_Baseball_Stadiums\/FeatureServer\/0" }, "geometry": { "type": "Point", "coordinates": [ -84.506483, 39.097213 ] } },
{ "type": "Feature", "properties": { "PARKID": "CLE02", "NAME": "National League Park I", "CITY": "Cleveland", "STATE": "OH", "START": "18790501", "END": "18841011", "LEAGUE": "NL", "Latitude": 41.500804, "Longitude": -81.654278, "Altitude": "667", "TEAM": "Cleveland Blues", "CAPACITY": "-", "Notes": "https:\/\/en.wikipedia.org\/wiki\/National_League_Park" }, "geometry": { "type": "Point", "coordinates": [ -81.654278, 41.500804 ] } },
{ "type": "Feature", "properties": { "PARKID": "CLE05", "NAME": "League Park III", "CITY": "Cleveland", "STATE": "OH", "START": "18910501", "END": "19090906", "LEAGUE": "NL\/AL", "Latitude": 41.511852, "Longitude": -81.643766, "Altitude": "644", "TEAM": "Cleveland Spiders\/ Cleveland Indians", "CAPACITY": "21414", "Notes": "https:\/\/en.wikipedia.org\/wiki\/League_Park" }, "geometry": { "type": "Point", "coordinates": [ -81.643766, 41.511852 ] } },
{ "type": "Feature", "properties": { "PARKID": "CLE06", "NAME": "League Park IV", "CITY": "Cleveland", "STATE": "OH", "START": "19100421", "END": "19460921", "LEAGUE": "AL", "Latitude": 41.511852, "Longitude": -81.643766, "Altitude": "644", "TEAM": "Cleveland Indians", "CAPACITY": "22500", "Notes": "https:\/\/en.wikipedia.org\/wiki\/League_Park" }, "geometry": { "type": "Point", "coordinates": [ -81.643766, 41.511852 ] } },
{ "type": "Feature", "properties": { "PARKID": "CLE07", "NAME": "Cleveland Stadium", "CITY": "Cleveland", "STATE": "OH", "START": "19320731", "END": "19931003", "LEAGUE": "AL", "Latitude": 41.506091, "Longitude": -81.699404, "Altitude": "593", "TEAM": "Cleveland Indians", "CAPACITY": "74438", "Notes": "https:\/\/en.wikipedia.org\/wiki\/Cleveland_Stadium" }, "geometry": { "type": "Point", "coordinates": [ -81.699404, 41.506091 ] } },
{ "type": "Feature", "properties": { "PARKID": "CLE08", "NAME": "Progressive Field", "CITY": "Cleveland", "STATE": "OH", "START": "19940404", "END": "", "LEAGUE": "AL", "Latitude": 41.496005, "Longitude": -81.685326, "Altitude": "673", "TEAM": "Cleveland Guardians", "CAPACITY": "43441", "Notes": "https:\/\/services.arcgis.com\/P3ePLMYs2RVChkJx\/arcgis\/rest\/services\/Major_League_Baseball_Stadiums\/FeatureServer\/0" }, "geometry": { "type": "Point", "coordinates": [ -81.685326, 41.496005 ] } },
{ "type": "Feature", "properties": { "PARKID": "CLL01", "NAME": "Euclid Beach Park", "CITY": "Collinwood", "STATE": "OH", "START": "18980612", "END": "18980619", "LEAGUE": "NL", "Latitude": 41.577927, "Longitude": -81.565971, "Altitude": "604", "TEAM": "Cleveland Spiders", "CAPACITY": "-", "Notes": "http:\/\/www.projectballpark.org\/history\/nl\/alt\/euclid.html" }, "geometry": { "type": "Point", "coordinates": [ -81.565971, 41.577927 ] } },
{ "type": "Feature", "properties": { "PARKID": "COL03", "NAME": "Neil Park I", "CITY": "Columbus", "STATE": "OH", "START": "19020803", "END": "19030517", "LEAGUE": "AL", "Latitude": 39.972455, "Longitude": -82.990297, "Altitude": "783", "TEAM": "-", "CAPACITY": "-", "Notes": "" }, "geometry": { "type": "Point", "coordinates": [ -82.990297, 39.972455 ] } },
{ "type": "Feature", "properties": { "PARKID": "COL04", "NAME": "Neil Park II", "CITY": "Columbus", "STATE": "OH", "START": "19050723", "END": "19050724", "LEAGUE": "AL", "Latitude": 39.972455, "Longitude": -82.990297, "Altitude": "783", "TEAM": "-", "CAPACITY": "-", "Notes": "" }, "geometry": { "type": "Point", "coordinates": [ -82.990297, 39.972455 ] } },
{ "type": "Feature", "properties": { "PARKID": "DAY01", "NAME": "Fairview Park", "CITY": "Dayton", "STATE": "OH", "START": "19020608", "END": "19020608", "LEAGUE": "AL", "Latitude": 39.786302, "Longitude": -84.213033, "Altitude": "824", "TEAM": "-", "CAPACITY": "-", "Notes": "" }, "geometry": { "type": "Point", "coordinates": [ -84.213033, 39.786302 ] } },
{ "type": "Feature", "properties": { "PARKID": "DEN01", "NAME": "Mile High Stadium", "CITY": "Denver", "STATE": "CO", "START": "19930409", "END": "19940811", "LEAGUE": "NL", "Latitude": 39.746293, "Longitude": -105.021939, "Altitude": "5211", "TEAM": "Colorado Rockies", "CAPACITY": "76000", "Notes": "http:\/\/projectballpark.org\/history\/nl\/mile.html" }, "geometry": { "type": "Point", "coordinates": [ -105.021939, 39.746293 ] } },
{ "type": "Feature", "properties": { "PARKID": "DEN02", "NAME": "Coors Field", "CITY": "Denver", "STATE": "CO", "START": "19950426", "END": "", "LEAGUE": "NL", "Latitude": 39.756175, "Longitude": -104.99413, "Altitude": "5197", "TEAM": "Colorado Rockies", "CAPACITY": "50490", "Notes": "https:\/\/services.arcgis.com\/P3ePLMYs2RVChkJx\/arcgis\/rest\/services\/Major_League_Baseball_Stadiums\/FeatureServer\/0" }, "geometry": { "type": "Point", "coordinates": [ -104.99413, 39.756175 ] } },
{ "type": "Feature", "properties": { "PARKID": "DET01", "NAME": "Recreation Park", "CITY": "Detroit", "STATE": "MI", "START": "18810502", "END": "18900923", "LEAGUE": "NL", "Latitude": 42.353487, "Longitude": -83.0564, "Altitude": "625", "TEAM": "Detroit Wolverines", "CAPACITY": "-", "Notes": "https:\/\/www.baseball-reference.com\/bullpen\/Recreation_Park_(Detroit)" }, "geometry": { "type": "Point", "coordinates": [ -83.0564, 42.353487 ] } },
{ "type": "Feature", "properties": { "PARKID": "DET02", "NAME": "Bennett Park", "CITY": "Detroit", "STATE": "MI", "START": "19010425", "END": "19110910", "LEAGUE": "AL", "Latitude": 42.332541, "Longitude": -83.068732, "Altitude": "601", "TEAM": "Detroit Tigers", "CAPACITY": "14000", "Notes": "https:\/\/en.wikipedia.org\/wiki\/Bennett_Park_(Detroit)" }, "geometry": { "type": "Point", "coordinates": [ -83.068732, 42.332541 ] } },
{ "type": "Feature", "properties": { "PARKID": "DET03", "NAME": "Burns Park", "CITY": "Detroit", "STATE": "MI", "START": "19010428", "END": "19020907", "LEAGUE": "AL", "Latitude": 42.318309, "Longitude": -83.127755, "Altitude": "590", "TEAM": "Detroit Tigers", "CAPACITY": "3200", "Notes": "https:\/\/www.retroseasons.com\/stadiums\/burns-park\/" }, "geometry": { "type": "Point", "coordinates": [ -83.127755, 42.318309 ] } },
{ "type": "Feature", "properties": { "PARKID": "DET04", "NAME": "Tiger Stadium", "CITY": "Detroit", "STATE": "MI", "START": "19120420", "END": "19990927", "LEAGUE": "AL", "Latitude": 42.332541, "Longitude": -83.068732, "Altitude": "601", "TEAM": "Detroit Tigers", "CAPACITY": "52400", "Notes": "https:\/\/www.ballparksofbaseball.com\/ballparks\/tiger-stadium\/" }, "geometry": { "type": "Point", "coordinates": [ -83.068732, 42.332541 ] } },
{ "type": "Feature", "properties": { "PARKID": "DET05", "NAME": "Comerica Park", "CITY": "Detroit", "STATE": "MI", "START": "20000411", "END": "", "LEAGUE": "AL", "Latitude": 42.339063, "Longitude": -83.048627, "Altitude": "602", "TEAM": "Detroit Tigers", "CAPACITY": "41681", "Notes": "https:\/\/services.arcgis.com\/P3ePLMYs2RVChkJx\/arcgis\/rest\/services\/Major_League_Baseball_Stadiums\/FeatureServer\/0" }, "geometry": { "type": "Point", "coordinates": [ -83.048627, 42.339063 ] } },
{ "type": "Feature", "properties": { "PARKID": "FOR03", "NAME": "Jailhouse Flats", "CITY": "Fort Wayne", "STATE": "IN", "START": "19020622", "END": "19020831", "LEAGUE": "AL", "Latitude": 41.084198, "Longitude": -85.139431, "Altitude": "756", "TEAM": "Cleveland Indians", "CAPACITY": "-", "Notes": "http:\/\/projectballpark.org\/history\/al\/alt\/jailhouse.html" }, "geometry": { "type": "Point", "coordinates": [ -85.139431, 41.084198 ] } },
{ "type": "Feature", "properties": { "PARKID": "HOU01", "NAME": "Colt Stadium", "CITY": "Houston", "STATE": "TX", "START": "19620410", "END": "19640927", "LEAGUE": "NL", "Latitude": 29.6889, "Longitude": -95.4089, "Altitude": "55", "TEAM": "Houston Colt .45s", "CAPACITY": "33000", "Notes": "https:\/\/en.wikipedia.org\/wiki\/Houston_Astros; https:\/\/www.ballparksofbaseball.com\/ballparks\/colt-stadium\/" }, "geometry": { "type": "Point", "coordinates": [ -95.4089, 29.6889 ] } },
{ "type": "Feature", "properties": { "PARKID": "HOU02", "NAME": "Astrodome", "CITY": "Houston", "STATE": "TX", "START": "19650412", "END": "19991003", "LEAGUE": "NL", "Latitude": 29.684812, "Longitude": -95.407775, "Altitude": "52", "TEAM": "Houston Astros", "CAPACITY": "54816", "Notes": "https:\/\/www.ballparksofbaseball.com\/ballparks\/astrodome\/#:~:text=In%20Fall%201989%2C%20due%20to,boards%20in%20the%20upper%20deck." }, "geometry": { "type": "Point", "coordinates": [ -95.407775, 29.684812 ] } },
{ "type": "Feature", "properties": { "PARKID": "HOU03", "NAME": "Minute Maid Park", "CITY": "Houston", "STATE": "TX", "START": "20000407", "END": "", "LEAGUE": "NL", "Latitude": 29.757041, "Longitude": -95.355429, "Altitude": "20", "TEAM": "Houston Astros", "CAPACITY": "40963", "Notes": "https:\/\/services.arcgis.com\/P3ePLMYs2RVChkJx\/arcgis\/rest\/services\/Major_League_Baseball_Stadiums\/FeatureServer\/0" }, "geometry": { "type": "Point", "coordinates": [ -95.355429, 29.757041 ] } },
{ "type": "Feature", "properties": { "PARKID": "KAN05", "NAME": "Municipal Stadium", "CITY": "Kansas City", "STATE": "MO", "START": "19550412", "END": "19721004", "LEAGUE": "AL", "Latitude": 39.086109, "Longitude": -94.557535, "Altitude": "916", "TEAM": "Kansas City Athletics\/ Kansas City Royals", "CAPACITY": "30611", "Notes": "https:\/\/www.ballparksofbaseball.com\/ballparks\/kansas-city-municipal-stadium\/" }, "geometry": { "type": "Point", "coordinates": [ -94.557535, 39.086109 ] } },
{ "type": "Feature", "properties": { "PARKID": "KAN06", "NAME": "Kauffman Stadium", "CITY": "Kansas City", "STATE": "MO", "START": "19730410", "END": "", "LEAGUE": "AL", "Latitude": 39.051604, "Longitude": -94.480149, "Altitude": "886", "TEAM": "Kansas City Royals", "CAPACITY": "37903", "Notes": "https:\/\/services.arcgis.com\/P3ePLMYs2RVChkJx\/arcgis\/rest\/services\/Major_League_Baseball_Stadiums\/FeatureServer\/0" }, "geometry": { "type": "Point", "coordinates": [ -94.480149, 39.051604 ] } },
{ "type": "Feature", "properties": { "PARKID": "LOS01", "NAME": "Los Angeles Memorial Coliseum", "CITY": "Los Angeles", "STATE": "CA", "START": "19580418", "END": "19610920", "LEAGUE": "NL", "Latitude": 34.014019, "Longitude": -118.288009, "Altitude": "139", "TEAM": "Los Angeles Dodgers", "CAPACITY": "90000", "Notes": "https:\/\/sabr.org\/journal\/article\/a-home-like-no-other-the-dodgers-in-l-a-memorial-coliseum\/" }, "geometry": { "type": "Point", "coordinates": [ -118.288009, 34.014019 ] } },
{ "type": "Feature", "properties": { "PARKID": "LOS02", "NAME": "Wrigley Field", "CITY": "Los Angeles", "STATE": "CA", "START": "19610427", "END": "19611001", "LEAGUE": "AL", "Latitude": 34.007316, "Longitude": -118.266236, "Altitude": "188", "TEAM": "Los Angeles Angels", "CAPACITY": "20457", "Notes": "https:\/\/en.wikipedia.org\/wiki\/Wrigley_Field_(Los_Angeles)" }, "geometry": { "type": "Point", "coordinates": [ -118.266236, 34.007316 ] } },
{ "type": "Feature", "properties": { "PARKID": "LOS03", "NAME": "Dodger Stadium", "CITY": "Los Angeles", "STATE": "CA", "START": "19620410", "END": "", "LEAGUE": "NL", "Latitude": 34.073878, "Longitude": -118.239951, "Altitude": "501", "TEAM": "Los Angeles Dodgers\/ Los Angeles Angels", "CAPACITY": "56000", "Notes": "https:\/\/services.arcgis.com\/P3ePLMYs2RVChkJx\/arcgis\/rest\/services\/Major_League_Baseball_Stadiums\/FeatureServer\/0" }, "geometry": { "type": "Point", "coordinates": [ -118.239951, 34.073878 ] } },
{ "type": "Feature", "properties": { "PARKID": "LOU03", "NAME": "Eclipse Park II", "CITY": "Louisville", "STATE": "KY", "START": "18930522", "END": "18990802", "LEAGUE": "NL", "Latitude": 38.247254, "Longitude": -85.799672, "Altitude": "452", "TEAM": "Louisville Colonels", "CAPACITY": "6000", "Notes": "https:\/\/www.retroseasons.com\/stadiums\/eclipse-park-louisville-ii\/" }, "geometry": { "type": "Point", "coordinates": [ -85.799672, 38.247254 ] } },
{ "type": "Feature", "properties": { "PARKID": "MIA01", "NAME": "Pro Player Stadium", "CITY": "Miami", "STATE": "FL", "START": "19930405", "END": "20110928", "LEAGUE": "NL", "Latitude": 25.957877, "Longitude": -80.238831, "Altitude": "5", "TEAM": "Florida Marlins", "CAPACITY": "36500", "Notes": "https:\/\/baseball.fandom.com\/wiki\/Sun_Life_Stadium" }, "geometry": { "type": "Point", "coordinates": [ -80.238831, 25.957877 ] } },
{ "type": "Feature", "properties": { "PARKID": "MIA02", "NAME": "Marlins Park", "CITY": "Miami", "STATE": "FL", "START": "20120404", "END": "", "LEAGUE": "NL", "Latitude": 25.778165, "Longitude": -80.219541, "Altitude": "6", "TEAM": "Miami Marlins", "CAPACITY": "37000", "Notes": "https:\/\/services.arcgis.com\/P3ePLMYs2RVChkJx\/arcgis\/rest\/services\/Major_League_Baseball_Stadiums\/FeatureServer\/0" }, "geometry": { "type": "Point", "coordinates": [ -80.219541, 25.778165 ] } },
{ "type": "Feature", "properties": { "PARKID": "MIL04", "NAME": "Lloyd Street Grounds", "CITY": "Milwaukee", "STATE": "WI", "START": "19010503", "END": "19010912", "LEAGUE": "AL", "Latitude": 43.059126, "Longitude": -87.933329, "Altitude": "677", "TEAM": "Milwaukee Brewers", "CAPACITY": "9000", "Notes": "http:\/\/projectballpark.org\/history\/al\/lloydst.html" }, "geometry": { "type": "Point", "coordinates": [ -87.933329, 43.059126 ] } },
{ "type": "Feature", "properties": { "PARKID": "MIL05", "NAME": "Milwaukee County Stadium", "CITY": "Milwaukee", "STATE": "WI", "START": "19530414", "END": "20000928", "LEAGUE": "NL", "Latitude": 43.030501826035284, "Longitude": -87.97380683, "Altitude": "", "TEAM": "Milwaukee Braves\/ Milwaukee Brewers", "CAPACITY": "53192", "Notes": "https:\/\/en.wikipedia.org\/wiki\/Milwaukee_County_Stadium; https:\/\/www.ballparksofbaseball.com\/ballparks\/milwaukee-county-stadium\/; https:\/\/www.jsonline.com\/picture-gallery\/sports\/mlb\/brewers\/2024\/03\/27\/see-rare-color-images-from-the-brewers-first-opening-day-in-1970\/73121747007\/" }, "geometry": { "type": "Point", "coordinates": [ -87.97380683, 43.030501826035284 ] } },
{ "type": "Feature", "properties": { "PARKID": "MIL06", "NAME": "American Family Field", "CITY": "Milwaukee", "STATE": "WI", "START": "20010406", "END": "", "LEAGUE": "NL", "Latitude": 43.028232, "Longitude": -87.970966, "Altitude": "602", "TEAM": "Milwaukee Brewers", "CAPACITY": "41900", "Notes": "https:\/\/services.arcgis.com\/P3ePLMYs2RVChkJx\/arcgis\/rest\/services\/Major_League_Baseball_Stadiums\/FeatureServer\/0" }, "geometry": { "type": "Point", "coordinates": [ -87.970966, 43.028232 ] } },
{ "type": "Feature", "properties": { "PARKID": "MIN02", "NAME": "Metropolitan Stadium", "CITY": "Bloomington", "STATE": "MN", "START": "19610421", "END": "19810930", "LEAGUE": "AL", "Latitude": 44.854783, "Longitude": -93.242921, "Altitude": "821", "TEAM": "Minnesota Twins", "CAPACITY": "45919", "Notes": "https:\/\/www.ballparksofbaseball.com\/ballparks\/metropolitan-stadium\/" }, "geometry": { "type": "Point", "coordinates": [ -93.242921, 44.854783 ] } },
{ "type": "Feature", "properties": { "PARKID": "MIN03", "NAME": "Hubert H. Humphrey Metrodome", "CITY": "Minneapolis", "STATE": "MN", "START": "19820406", "END": "20091006", "LEAGUE": "AL", "Latitude": 44.973926, "Longitude": -93.258287, "Altitude": "854", "TEAM": "Minnesota Twins", "CAPACITY": "46564", "Notes": "https:\/\/simple.wikipedia.org\/wiki\/Hubert_H._Humphrey_Metrodome" }, "geometry": { "type": "Point", "coordinates": [ -93.258287, 44.973926 ] } },
{ "type": "Feature", "properties": { "PARKID": "MIN04", "NAME": "Target Field", "CITY": "Minneapolis", "STATE": "MN", "START": "20100412", "END": "", "LEAGUE": "AL", "Latitude": 44.981749, "Longitude": -93.278026, "Altitude": "840", "TEAM": "Minnesota Twins", "CAPACITY": "39021", "Notes": "https:\/\/services.arcgis.com\/P3ePLMYs2RVChkJx\/arcgis\/rest\/services\/Major_League_Baseball_Stadiums\/FeatureServer\/0" }, "geometry": { "type": "Point", "coordinates": [ -93.278026, 44.981749 ] } },
{ "type": "Feature", "properties": { "PARKID": "MON01", "NAME": "Parc Jarry", "CITY": "Montreal", "STATE": "QUE", "START": "19690414", "END": "19760926", "LEAGUE": "NL", "Latitude": 45.53291, "Longitude": -73.627094, "Altitude": "190", "TEAM": "Montreal Expos", "CAPACITY": "29125", "Notes": "https:\/\/www.ballparksofbaseball.com\/ballparks\/jarry-park\/#:~:text=A%203%2C000%20seat%20stadium%20known,could%20be%20increased%20to%2030%2C000." }, "geometry": { "type": "Point", "coordinates": [ -73.627094, 45.53291 ] } },
{ "type": "Feature", "properties": { "PARKID": "MON02", "NAME": "Stade Olympique", "CITY": "Montreal", "STATE": "QUE", "START": "19770415", "END": "20040929", "LEAGUE": "NL", "Latitude": 45.557969, "Longitude": -73.551925, "Altitude": "89", "TEAM": "Montreal Expos", "CAPACITY": "46500", "Notes": "https:\/\/www.ballparksofbaseball.com\/ballparks\/olympic-stadium\/" }, "geometry": { "type": "Point", "coordinates": [ -73.551925, 45.557969 ] } },
{ "type": "Feature", "properties": { "PARKID": "NYC10", "NAME": "Polo Grounds IV", "CITY": "New York", "STATE": "NY", "START": "18900419", "END": "19110413", "LEAGUE": "NL", "Latitude": 40.831462, "Longitude": -73.936724, "Altitude": "13", "TEAM": "New York Giants", "CAPACITY": "54500", "Notes": "https:\/\/www.retroseasons.com\/stadiums\/polo-grounds-iv\/" }, "geometry": { "type": "Point", "coordinates": [ -73.936724, 40.831462 ] } },
{ "type": "Feature", "properties": { "PARKID": "NYC11", "NAME": "Eastern Park", "CITY": "Brooklyn", "STATE": "NY", "START": "18900428", "END": "18971002", "LEAGUE": "NL", "Latitude": 40.669542, "Longitude": -73.902853, "Altitude": "40", "TEAM": "Brooklyn Bridgerooms", "CAPACITY": "12000", "Notes": "https:\/\/en.wikipedia.org\/wiki\/Eastern_Park" }, "geometry": { "type": "Point", "coordinates": [ -73.902853, 40.669542 ] } },
{ "type": "Feature", "properties": { "PARKID": "NYC12", "NAME": "Washington Park III", "CITY": "Brooklyn", "STATE": "NY", "START": "18980430", "END": "19121005", "LEAGUE": "NL", "Latitude": 40.675411, "Longitude": -73.986773, "Altitude": "26", "TEAM": "Brooklyn Superbas\/ Brooklyn Trolley Dodgers", "CAPACITY": "18800", "Notes": "https:\/\/www.retroseasons.com\/stadiums\/washington-park-iii\/" }, "geometry": { "type": "Point", "coordinates": [ -73.986773, 40.675411 ] } },
{ "type": "Feature", "properties": { "PARKID": "NYC13", "NAME": "Hilltop Park", "CITY": "New York", "STATE": "NY", "START": "19030430", "END": "19121005", "LEAGUE": "AL", "Latitude": 40.840334, "Longitude": -73.941788, "Altitude": "164", "TEAM": "New York Highlanders\/ New York Giants", "CAPACITY": "16000", "Notes": "https:\/\/www.ballparksofbaseball.com\/ballparks\/hilltop-park\/" }, "geometry": { "type": "Point", "coordinates": [ -73.941788, 40.840334 ] } },
{ "type": "Feature", "properties": { "PARKID": "NYC14", "NAME": "Polo Grounds V", "CITY": "New York", "STATE": "NY", "START": "19110628", "END": "19630918", "LEAGUE": "NL\/AL", "Latitude": 40.8316, "Longitude": -73.936896, "Altitude": "13", "TEAM": "New York Giants\/ New York Yankees\/ New York Mets", "CAPACITY": "54555", "Notes": "https:\/\/www.ballparksofbaseball.com\/ballparks\/polo-grounds\/" }, "geometry": { "type": "Point", "coordinates": [ -73.936896, 40.8316 ] } },
{ "type": "Feature", "properties": { "PARKID": "NYC15", "NAME": "Ebbets Field", "CITY": "Brooklyn", "STATE": "NY", "START": "19130409", "END": "19570924", "LEAGUE": "NL", "Latitude": 40.664768, "Longitude": -73.958374, "Altitude": "84", "TEAM": "Brooklyn Dodgers", "CAPACITY": "32000", "Notes": "https:\/\/www.ballparksofbaseball.com\/ballparks\/ebbets-field\/" }, "geometry": { "type": "Point", "coordinates": [ -73.958374, 40.664768 ] } },
{ "type": "Feature", "properties": { "PARKID": "NYC16", "NAME": "Yankee Stadium I", "CITY": "New York", "STATE": "NY", "START": "19230418", "END": "20080921", "LEAGUE": "AL", "Latitude": 40.826959, "Longitude": -73.927749, "Altitude": "18", "TEAM": "New York Yankees", "CAPACITY": "56937", "Notes": "https:\/\/www.ballparksofbaseball.com\/ballparks\/old-yankee-stadium\/" }, "geometry": { "type": "Point", "coordinates": [ -73.927749, 40.826959 ] } },
{ "type": "Feature", "properties": { "PARKID": "NYC17", "NAME": "Shea Stadium", "CITY": "New York", "STATE": "NY", "START": "19640417", "END": "20080928", "LEAGUE": "NL", "Latitude": 40.755753, "Longitude": -73.847814, "Altitude": "13", "TEAM": "New York Mets", "CAPACITY": "57333", "Notes": "https:\/\/www.ballparksofbaseball.com\/ballparks\/shea-stadium\/" }, "geometry": { "type": "Point", "coordinates": [ -73.847814, 40.755753 ] } },
{ "type": "Feature", "properties": { "PARKID": "NYC20", "NAME": "Citi Field", "CITY": "New York", "STATE": "NY", "START": "20090413", "END": "", "LEAGUE": "NL", "Latitude": 40.757134, "Longitude": -73.84584, "Altitude": "13", "TEAM": "New York Mets", "CAPACITY": "41800", "Notes": "https:\/\/services.arcgis.com\/P3ePLMYs2RVChkJx\/arcgis\/rest\/services\/Major_League_Baseball_Stadiums\/FeatureServer\/0" }, "geometry": { "type": "Point", "coordinates": [ -73.84584, 40.757134 ] } },
{ "type": "Feature", "properties": { "PARKID": "NYC21", "NAME": "New Yankee Stadium", "CITY": "New York", "STATE": "NY", "START": "20090416", "END": "", "LEAGUE": "AL", "Latitude": 40.829586, "Longitude": -73.926413, "Altitude": "11", "TEAM": "New York Yankees", "CAPACITY": "49642", "Notes": "https:\/\/services.arcgis.com\/P3ePLMYs2RVChkJx\/arcgis\/rest\/services\/Major_League_Baseball_Stadiums\/FeatureServer\/0" }, "geometry": { "type": "Point", "coordinates": [ -73.926413, 40.829586 ] } },
{ "type": "Feature", "properties": { "PARKID": "OAK01", "NAME": "Oakland-Alameda County Coliseum", "CITY": "Oakland", "STATE": "CA", "START": "19680417", "END": "", "LEAGUE": "AL", "Latitude": 37.751619, "Longitude": -122.200451, "Altitude": "0", "TEAM": "Oakland Athletics", "CAPACITY": "63026", "Notes": "https:\/\/services.arcgis.com\/P3ePLMYs2RVChkJx\/arcgis\/rest\/services\/Major_League_Baseball_Stadiums\/FeatureServer\/0" }, "geometry": { "type": "Point", "coordinates": [ -122.200451, 37.751619 ] } },
{ "type": "Feature", "properties": { "PARKID": "PHI04", "NAME": "Recreation Park", "CITY": "Philadelphia", "STATE": "PA", "START": "18830501", "END": "18861009", "LEAGUE": "NL", "Latitude": 39.981581, "Longitude": -75.174812, "Altitude": "104", "TEAM": "Philadelphia Phillies", "CAPACITY": "6500", "Notes": "https:\/\/en.wikipedia.org\/wiki\/Recreation_Park_(Philadelphia)" }, "geometry": { "type": "Point", "coordinates": [ -75.174812, 39.981581 ] } },
{ "type": "Feature", "properties": { "PARKID": "PHI06", "NAME": "Huntingdon Grounds I", "CITY": "Philadelphia", "STATE": "PA", "START": "18870430", "END": "18940804", "LEAGUE": "NL", "Latitude": 39.993268, "Longitude": -75.155638, "Altitude": "98", "TEAM": "Philadelphia Phillies", "CAPACITY": "12500", "Notes": "https:\/\/en.wikipedia.org\/wiki\/Baker_Bowl" }, "geometry": { "type": "Point", "coordinates": [ -75.155638, 39.993268 ] } },
{ "type": "Feature", "properties": { "PARKID": "PHI09", "NAME": "Baker Bowl", "CITY": "Philadelphia", "STATE": "PA", "START": "18950502", "END": "19380630", "LEAGUE": "NL", "Latitude": 39.993268, "Longitude": -75.155638, "Altitude": "98", "TEAM": "Philadelphia Phillies", "CAPACITY": "18800", "Notes": "https:\/\/en.wikipedia.org\/wiki\/Baker_Bowl" }, "geometry": { "type": "Point", "coordinates": [ -75.155638, 39.993268 ] } },
{ "type": "Feature", "properties": { "PARKID": "PHI10", "NAME": "Columbia Park", "CITY": "Philadelphia", "STATE": "PA", "START": "19010426", "END": "19081003", "LEAGUE": "AL", "Latitude": 39.98117, "Longitude": -75.182923, "Altitude": "98", "TEAM": "Philadelphia Athletics", "CAPACITY": "13600", "Notes": "https:\/\/en.wikipedia.org\/wiki\/Columbia_Park" }, "geometry": { "type": "Point", "coordinates": [ -75.182923, 39.98117 ] } },
{ "type": "Feature", "properties": { "PARKID": "PHI11", "NAME": "Shibe Park", "CITY": "Philadelphia", "STATE": "PA", "START": "19090412", "END": "19701001", "LEAGUE": "AL\/NL", "Latitude": 39.996127, "Longitude": -75.164751, "Altitude": "116", "TEAM": "Philadelphia Athletics\/ Philadelphia Phillies", "CAPACITY": "33000", "Notes": "https:\/\/www.ballparksofbaseball.com\/ballparks\/shibe-park\/" }, "geometry": { "type": "Point", "coordinates": [ -75.164751, 39.996127 ] } },
{ "type": "Feature", "properties": { "PARKID": "PHI12", "NAME": "Veterans Stadium", "CITY": "Philadelphia", "STATE": "PA", "START": "19710410", "END": "20030928", "LEAGUE": "NL", "Latitude": 39.906537, "Longitude": -75.171495, "Altitude": "18", "TEAM": "Philadelphia Phillies", "CAPACITY": "61831", "Notes": "https:\/\/en.wikipedia.org\/wiki\/Veterans_Stadium" }, "geometry": { "type": "Point", "coordinates": [ -75.171495, 39.906537 ] } },
{ "type": "Feature", "properties": { "PARKID": "PHI13", "NAME": "Citizens Bank Park", "CITY": "Philadelphia", "STATE": "PA", "START": "20040412", "END": "", "LEAGUE": "NL", "Latitude": 39.906109, "Longitude": -75.166485, "Altitude": "19", "TEAM": "Philadelphia Phillies", "CAPACITY": "43651", "Notes": "https:\/\/services.arcgis.com\/P3ePLMYs2RVChkJx\/arcgis\/rest\/services\/Major_League_Baseball_Stadiums\/FeatureServer\/0" }, "geometry": { "type": "Point", "coordinates": [ -75.166485, 39.906109 ] } },
{ "type": "Feature", "properties": { "PARKID": "PHI14", "NAME": "Huntingdon Grounds II", "CITY": "Philadelphia", "STATE": "PA", "START": "18940818", "END": "18940906", "LEAGUE": "NL", "Latitude": 39.993268, "Longitude": -75.155638, "Altitude": "98", "TEAM": "Philadelphia Phillies", "CAPACITY": "12500", "Notes": "https:\/\/en.wikipedia.org\/wiki\/Baker_Bowl" }, "geometry": { "type": "Point", "coordinates": [ -75.155638, 39.993268 ] } },
{ "type": "Feature", "properties": { "PARKID": "PHO01", "NAME": "Chase Field", "CITY": "Phoenix", "STATE": "AZ", "START": "19980331", "END": "", "LEAGUE": "NL", "Latitude": 33.44542, "Longitude": -112.066793, "Altitude": "1059", "TEAM": "Arizona Diamondbacks", "CAPACITY": "48330", "Notes": "https:\/\/en.wikipedia.org\/wiki\/Chase_Field" }, "geometry": { "type": "Point", "coordinates": [ -112.066793, 33.44542 ] } },
{ "type": "Feature", "properties": { "PARKID": "PIT05", "NAME": "Exposition Park III", "CITY": "Pittsburgh", "STATE": "PA", "START": "18900419", "END": "19151002", "LEAGUE": "NL", "Latitude": 40.445937, "Longitude": -80.010704, "Altitude": "729", "TEAM": "Pittsburgh Pirates", "CAPACITY": "16000", "Notes": "https:\/\/www.seamheads.com\/ballparks\/ballpark.php?parkID=PIT05" }, "geometry": { "type": "Point", "coordinates": [ -80.010704, 40.445937 ] } },
{ "type": "Feature", "properties": { "PARKID": "PIT06", "NAME": "Forbes Field", "CITY": "Pittsburgh", "STATE": "PA", "START": "19090630", "END": "19700628", "LEAGUE": "NL", "Latitude": 40.441302, "Longitude": -79.953449, "Altitude": "893", "TEAM": "Pittsburgh Pirates", "CAPACITY": "35000", "Notes": "https:\/\/www.ballparksofbaseball.com\/ballparks\/forbes-field\/" }, "geometry": { "type": "Point", "coordinates": [ -79.953449, 40.441302 ] } },
{ "type": "Feature", "properties": { "PARKID": "PIT07", "NAME": "Three Rivers Stadium", "CITY": "Pittsburgh", "STATE": "PA", "START": "19700716", "END": "20001001", "LEAGUE": "NL", "Latitude": 40.446533, "Longitude": -80.012614, "Altitude": "730", "TEAM": "Pittsburgh Pirates", "CAPACITY": "47952", "Notes": "https:\/\/www.ballparksofbaseball.com\/ballparks\/three-rivers-stadium\/" }, "geometry": { "type": "Point", "coordinates": [ -80.012614, 40.446533 ] } },
{ "type": "Feature", "properties": { "PARKID": "PIT08", "NAME": "PNC Park", "CITY": "Pittsburgh", "STATE": "PA", "START": "20010409", "END": "", "LEAGUE": "NL", "Latitude": 40.446835, "Longitude": -80.005683, "Altitude": "724", "TEAM": "Pittsburgh Pirates", "CAPACITY": "38362", "Notes": "https:\/\/services.arcgis.com\/P3ePLMYs2RVChkJx\/arcgis\/rest\/services\/Major_League_Baseball_Stadiums\/FeatureServer\/0" }, "geometry": { "type": "Point", "coordinates": [ -80.005683, 40.446835 ] } },
{ "type": "Feature", "properties": { "PARKID": "PRO02", "NAME": "Messer Street Grounds", "CITY": "Providence", "STATE": "RI", "START": "18780501", "END": "18850909", "LEAGUE": "NL", "Latitude": 41.813501, "Longitude": -71.436952, "Altitude": "83", "TEAM": "Providence Grays", "CAPACITY": "6000", "Notes": "https:\/\/en.wikipedia.org\/wiki\/Messer_Street_Grounds" }, "geometry": { "type": "Point", "coordinates": [ -71.436952, 41.813501 ] } },
{ "type": "Feature", "properties": { "PARKID": "SAN01", "NAME": "Jack Murphy Stadium", "CITY": "San Diego", "STATE": "CA", "START": "19690408", "END": "20030928", "LEAGUE": "NL", "Latitude": 32.783073, "Longitude": -117.119645, "Altitude": "83", "TEAM": "San Diego Padres", "CAPACITY": "47972", "Notes": "https:\/\/www.ballparksofbaseball.com\/ballparks\/jack-murphy-stadium\/" }, "geometry": { "type": "Point", "coordinates": [ -117.119645, 32.783073 ] } },
{ "type": "Feature", "properties": { "PARKID": "SAN02", "NAME": "Petco Park", "CITY": "San Diego", "STATE": "CA", "START": "20040408", "END": "", "LEAGUE": "NL", "Latitude": 32.70753, "Longitude": -117.157056, "Altitude": "14", "TEAM": "San Diego Padres", "CAPACITY": "42302", "Notes": "https:\/\/services.arcgis.com\/P3ePLMYs2RVChkJx\/arcgis\/rest\/services\/Major_League_Baseball_Stadiums\/FeatureServer\/0" }, "geometry": { "type": "Point", "coordinates": [ -117.157056, 32.70753 ] } },
{ "type": "Feature", "properties": { "PARKID": "SEA01", "NAME": "Sicks' Stadium", "CITY": "Seattle", "STATE": "WA", "START": "19690411", "END": "19691002", "LEAGUE": "AL", "Latitude": 47.579199, "Longitude": -122.297403, "Altitude": "61", "TEAM": "Seattle Pilots", "CAPACITY": "25000", "Notes": "https:\/\/www.ballparksofbaseball.com\/ballparks\/sicks-stadium\/" }, "geometry": { "type": "Point", "coordinates": [ -122.297403, 47.579199 ] } },
{ "type": "Feature", "properties": { "PARKID": "SEA02", "NAME": "Kingdome", "CITY": "Seattle", "STATE": "WA", "START": "19770406", "END": "19990627", "LEAGUE": "AL", "Latitude": 47.595133, "Longitude": -122.331639, "Altitude": "17", "TEAM": "Seattle Mariners", "CAPACITY": "59100", "Notes": "https:\/\/www.ballparksofbaseball.com\/ballparks\/kingdome\/" }, "geometry": { "type": "Point", "coordinates": [ -122.331639, 47.595133 ] } },
{ "type": "Feature", "properties": { "PARKID": "SEA03", "NAME": "T-Mobile Park", "CITY": "Seattle", "STATE": "WA", "START": "19990715", "END": "", "LEAGUE": "AL", "Latitude": 47.591443, "Longitude": -122.332283, "Altitude": "17", "TEAM": "Seattle Mariners", "CAPACITY": "47878", "Notes": "https:\/\/services.arcgis.com\/P3ePLMYs2RVChkJx\/arcgis\/rest\/services\/Major_League_Baseball_Stadiums\/FeatureServer\/0" }, "geometry": { "type": "Point", "coordinates": [ -122.332283, 47.591443 ] } },
{ "type": "Feature", "properties": { "PARKID": "SFO01", "NAME": "Seals Stadium", "CITY": "San Francisco", "STATE": "CA", "START": "19580415", "END": "19590920", "LEAGUE": "NL", "Latitude": 37.766774, "Longitude": -122.409337, "Altitude": "61", "TEAM": "San Francisco Giants", "CAPACITY": "22900", "Notes": "https:\/\/www.ballparksofbaseball.com\/ballparks\/seals-stadium\/" }, "geometry": { "type": "Point", "coordinates": [ -122.409337, 37.766774 ] } },
{ "type": "Feature", "properties": { "PARKID": "SFO02", "NAME": "Candlestick Park", "CITY": "San Francisco", "STATE": "CA", "START": "19600412", "END": "19990930", "LEAGUE": "NL", "Latitude": 37.713297, "Longitude": -122.38627, "Altitude": "135", "TEAM": "San Francisco Giants", "CAPACITY": "57546", "Notes": "https:\/\/www.ballparksofbaseball.com\/ballparks\/candlestick-park\/" }, "geometry": { "type": "Point", "coordinates": [ -122.38627, 37.713297 ] } },
{ "type": "Feature", "properties": { "PARKID": "SFO03", "NAME": "Oracle Park", "CITY": "San Francisco", "STATE": "CA", "START": "20000411", "END": "", "LEAGUE": "NL", "Latitude": 37.778324, "Longitude": -122.389221, "Altitude": "8", "TEAM": "San Francisco Giants", "CAPACITY": "41915", "Notes": "https:\/\/services.arcgis.com\/P3ePLMYs2RVChkJx\/arcgis\/rest\/services\/Major_League_Baseball_Stadiums\/FeatureServer\/0" }, "geometry": { "type": "Point", "coordinates": [ -122.389221, 37.778324 ] } },
{ "type": "Feature", "properties": { "PARKID": "STL05", "NAME": "Robison Field", "CITY": "St. Louis", "STATE": "MO", "START": "18930427", "END": "19200606", "LEAGUE": "NL", "Latitude": 38.662799, "Longitude": -90.222147, "Altitude": "500", "TEAM": "Saint Louis Cardinals", "CAPACITY": "21000", "Notes": "https:\/\/www.ballparksofbaseball.com\/ballparks\/robison-field\/" }, "geometry": { "type": "Point", "coordinates": [ -90.222147, 38.662799 ] } },
{ "type": "Feature", "properties": { "PARKID": "STL06", "NAME": "Sportsman's Park II", "CITY": "St. Louis", "STATE": "MO", "START": "19020423", "END": "19081006", "LEAGUE": "AL", "Latitude": 38.657795, "Longitude": -90.220619, "Altitude": "492", "TEAM": "Saint Louis Cardinals", "CAPACITY": "17500", "Notes": "https:\/\/www.ballparksofbaseball.com\/ballparks\/sportsmans-park\/" }, "geometry": { "type": "Point", "coordinates": [ -90.220619, 38.657795 ] } },
{ "type": "Feature", "properties": { "PARKID": "STL07", "NAME": "Sportsman's Park III", "CITY": "St. Louis", "STATE": "MO", "START": "19090414", "END": "19660508", "LEAGUE": "", "Latitude": 38.657718, "Longitude": -90.220344, "Altitude": "492", "TEAM": "Saint Louis Browns", "CAPACITY": "30611", "Notes": "https:\/\/www.ballparksofbaseball.com\/ballparks\/sportsmans-park\/" }, "geometry": { "type": "Point", "coordinates": [ -90.220344, 38.657718 ] } },
{ "type": "Feature", "properties": { "PARKID": "STL09", "NAME": "Busch Stadium II", "CITY": "St. Louis", "STATE": "MO", "START": "19660512", "END": "20051002", "LEAGUE": "NL", "Latitude": 38.62393, "Longitude": -90.192326, "Altitude": "460", "TEAM": "Saint Louis Cardinals", "CAPACITY": "50345", "Notes": "https:\/\/www.ballparksofbaseball.com\/ballparks\/busch-stadium-2\/" }, "geometry": { "type": "Point", "coordinates": [ -90.192326, 38.62393 ] } },
{ "type": "Feature", "properties": { "PARKID": "STL10", "NAME": "Busch Stadium III", "CITY": "St. Louis", "STATE": "MO", "START": "20060410", "END": "", "LEAGUE": "NL", "Latitude": 38.622622, "Longitude": -90.192841, "Altitude": "438", "TEAM": "Saint Louis Cardinals", "CAPACITY": "43975", "Notes": "https:\/\/services.arcgis.com\/P3ePLMYs2RVChkJx\/arcgis\/rest\/services\/Major_League_Baseball_Stadiums\/FeatureServer\/0" }, "geometry": { "type": "Point", "coordinates": [ -90.192841, 38.622622 ] } },
{ "type": "Feature", "properties": { "PARKID": "STP01", "NAME": "Tropicana Field", "CITY": "St. Petersburg", "STATE": "FL", "START": "19980331", "END": "", "LEAGUE": "AL", "Latitude": 27.768254, "Longitude": -82.653431, "Altitude": "41", "TEAM": "Tampa Bay Rays", "CAPACITY": "34078", "Notes": "https:\/\/services.arcgis.com\/P3ePLMYs2RVChkJx\/arcgis\/rest\/services\/Major_League_Baseball_Stadiums\/FeatureServer\/0" }, "geometry": { "type": "Point", "coordinates": [ -82.653431, 27.768254 ] } },
{ "type": "Feature", "properties": { "PARKID": "TOR01", "NAME": "Exhibition Stadium", "CITY": "Toronto", "STATE": "ONT", "START": "19770407", "END": "19890528", "LEAGUE": "AL", "Latitude": 43.632568, "Longitude": -79.417679, "Altitude": "273", "TEAM": "Toronto Blue Jays", "CAPACITY": "44649", "Notes": "https:\/\/www.ballparksofbaseball.com\/ballparks\/exhibition-stadium\/" }, "geometry": { "type": "Point", "coordinates": [ -79.417679, 43.632568 ] } },
{ "type": "Feature", "properties": { "PARKID": "TOR02", "NAME": "Rogers Centre", "CITY": "Toronto", "STATE": "ONT", "START": "19890605", "END": "", "LEAGUE": "AL", "Latitude": 43.641256, "Longitude": -79.389054, "Altitude": "268", "TEAM": "Toronto Blue Jays", "CAPACITY": "48292", "Notes": "https:\/\/services.arcgis.com\/P3ePLMYs2RVChkJx\/arcgis\/rest\/services\/Major_League_Baseball_Stadiums\/FeatureServer\/0" }, "geometry": { "type": "Point", "coordinates": [ -79.389054, 43.641256 ] } },
{ "type": "Feature", "properties": { "PARKID": "TRO02", "NAME": "Putnam Grounds", "CITY": "Troy", "STATE": "NY", "START": "18790528", "END": "18790920", "LEAGUE": "NL", "Latitude": 42.733038, "Longitude": -73.676616, "Altitude": "250", "TEAM": "Troy Trojans", "CAPACITY": "-", "Notes": "https:\/\/www.retroseasons.com\/stadiums\/putnam-grounds\/" }, "geometry": { "type": "Point", "coordinates": [ -73.676616, 42.733038 ] } },
{ "type": "Feature", "properties": { "PARKID": "WAS05", "NAME": "Swampoodle Grounds", "CITY": "Washington", "STATE": "DC", "START": "18860429", "END": "18890921", "LEAGUE": "NL", "Latitude": 38.898236, "Longitude": -77.007383, "Altitude": "40", "TEAM": "Washington Nationals", "CAPACITY": "6000", "Notes": "https:\/\/en.wikipedia.org\/wiki\/Swampoodle_Grounds" }, "geometry": { "type": "Point", "coordinates": [ -77.007383, 38.898236 ] } },
{ "type": "Feature", "properties": { "PARKID": "WAS07", "NAME": "American League Park I", "CITY": "Washington", "STATE": "DC", "START": "19010429", "END": "19030928", "LEAGUE": "AL", "Latitude": 38.901672, "Longitude": -76.986996, "Altitude": "48", "TEAM": "Washington Senators", "CAPACITY": "10000", "Notes": "http:\/\/projectballpark.org\/history\/al\/al1.html" }, "geometry": { "type": "Point", "coordinates": [ -76.986996, 38.901672 ] } },
{ "type": "Feature", "properties": { "PARKID": "WAS08", "NAME": "American League Park II", "CITY": "Washington", "STATE": "DC", "START": "19040414", "END": "19101006", "LEAGUE": "AL", "Latitude": 38.917576, "Longitude": -77.020191, "Altitude": "100", "TEAM": "Washington Senators", "CAPACITY": "6500", "Notes": "https:\/\/www.retroseasons.com\/stadiums\/boundary-field\/" }, "geometry": { "type": "Point", "coordinates": [ -77.020191, 38.917576 ] } },
{ "type": "Feature", "properties": { "PARKID": "WAS09", "NAME": "Griffith Stadium", "CITY": "Washington", "STATE": "DC", "START": "19110412", "END": "19610921", "LEAGUE": "AL", "Latitude": 38.917576, "Longitude": -77.020191, "Altitude": "100", "TEAM": "Washington Nationals\/ Washington Senators", "CAPACITY": "27410", "Notes": "https:\/\/www.ballparksofbaseball.com\/ballparks\/griffith-stadium\/" }, "geometry": { "type": "Point", "coordinates": [ -77.020191, 38.917576 ] } },
{ "type": "Feature", "properties": { "PARKID": "WAS10", "NAME": "Robert F. Kennedy Stadium", "CITY": "Washington", "STATE": "DC", "START": "19620409", "END": "20070923", "LEAGUE": "AL", "Latitude": 38.889766, "Longitude": -76.971837, "Altitude": "24", "TEAM": "Washington Senators\/ Washington Nationals", "CAPACITY": "46382", "Notes": "https:\/\/www.ballparksofbaseball.com\/ballparks\/rfk-stadium\/" }, "geometry": { "type": "Point", "coordinates": [ -76.971837, 38.889766 ] } },
{ "type": "Feature", "properties": { "PARKID": "WAS11", "NAME": "Nationals Park", "CITY": "Washington", "STATE": "DC", "START": "20080330", "END": "", "LEAGUE": "NL", "Latitude": 38.872987, "Longitude": -77.007435, "Altitude": "23", "TEAM": "Washington Nationals", "CAPACITY": "41418", "Notes": "https:\/\/services.arcgis.com\/P3ePLMYs2RVChkJx\/arcgis\/rest\/services\/Major_League_Baseball_Stadiums\/FeatureServer\/0" }, "geometry": { "type": "Point", "coordinates": [ -77.007435, 38.872987 ] } }
]
}
